,Borough,Neighborhood,Venue_Category,Venue_Latitude,Venue_Longitude,Venue_Name
0,BRONX,Wakefield,Caribbean,40.89976672962223,-73.85713521700312,Big Daddy's Caribbean Taste Restaurant
1,BRONX,Wakefield,Chinese,40.90435864343175,-73.84979461488385,Red Flower Chinese Restaurant
2,BRONX,Wakefield,Caribbean,40.89976826898382,-73.85718438589277,Kaieteur Restaurant & Bakery
3,BRONX,Wakefield,Caribbean,40.90182324,-73.84708902375714,Bay 241 Restaurant & Lounge
4,BRONX,Wakefield,Bar,40.90800801178226,-73.83608895832316,Dazzles Restaurant and Bar Lounge
5,BRONX,Wakefield,Caribbean,40.89827622104366,-73.85038105139019,Cooler Runnings Jamaican Restaurant Inc
6,BRONX,Wakefield,Chinese,40.8887854684858,-73.83122576835156,Xing Lung Chinese Restaurant
7,BRONX,Wakefield,Caribbean,40.89856350560861,-73.83701585446238,Margaritaville Restaurant and Lounge
8,BRONX,Wakefield,Caribbean,40.88904194096089,-73.84231345242961,Golden Fountain Restaurant
9,BRONX,Wakefield,Food,40.89813,-73.848516,Cool Running Restaurant
10,BRONX,Wakefield,Latin American,40.89250609999999,-73.8554509,El Jobo Seafood Restaurant
11,BRONX,Wakefield,,40.89085,-73.84886,Bay restaurant
12,BRONX,Wakefield,Halal,40.894718170166016,-73.85683536529541,Carifesta Restaurant
13,BRONX,Wakefield,Food,40.898318,-73.850442,Fort Negril Jamaican Restaurant
14,BRONX,Wakefield,American,40.90357339545961,-73.85022836028178,241 St Cafe & Restaurant
15,BRONX,Wakefield,Restaurant,40.894599214207574,-73.85677807270245,Carifesta Halal Restaurant
16,BRONX,Wakefield,Chinese,40.893725,-73.858407,Ming's Wok Chinese Restaurant
17,BRONX,Wakefield,,40.892181957536316,-73.86161925532339,231st Street Cafe/Restaurant
18,BRONX,Wakefield,Asian,40.89743295245587,-73.85522749080002,excellent taste restaurant
19,BRONX,Wakefield,Food,40.897251,-73.855249,Silver Chimes Restaurant
20,BRONX,Wakefield,Diner,40.88633207186384,-73.82761561924221,Cozy Cottage Restaurant
21,BRONX,Wakefield,Caribbean,40.88625385733291,-73.85120740676203,Lammy's Restaurant
22,BRONX,Wakefield,Food,40.892772,-73.855867,Pheola's Cariibbean Restaurant
23,BRONX,Wakefield,Seafood,40.894773,-73.856522,All Island Seafood Restaurant
24,BRONX,Wakefield,Restaurant,40.894262,-73.856903,C & M Restaurant
25,BRONX,Wakefield,Spanish,40.89289063331684,-73.85582475342396,El Mangu Tipico Restaurant
26,BRONX,Wakefield,Chinese,40.8930766582489,-73.857547,Jacky Chen's Chinese Restaurant
27,BRONX,Wakefield,Food,40.906614,-73.848799,Rio Cobre Restaurant
28,BRONX,Wakefield,Food,40.902851,-73.850657,In Thing Jamaican Restaurant
29,BRONX,Wakefield,Latin American,40.891538975512915,-73.85854686972982,Sabor Latino Restaurant
30,BRONX,Wakefield,Food,40.891906,-73.858103,Arawak Jamaican Restaurant
31,BRONX,Wakefield,American,40.895257455611954,-73.85891440997341,Barry's West Indian & American Restaurant
32,BRONX,Wakefield,Food,40.903243,-73.850583,Crystals Restaurant and Bar
33,BRONX,Wakefield,Food,40.903463,-73.850348,Two Four One St Cafe Restaurant
34,BRONX,Wakefield,Caribbean,40.90538389397327,-73.84942131452463,Cheffy Two Caribbean & American Restaurant
35,BRONX,Wakefield,Asian,40.8841792178673,-73.83268490851218,Jimmy's Best Chinese Restaurant
36,BRONX,Wakefield,Food,40.891376,-73.85844,Hoy Lung Restaurant
37,BRONX,Wakefield,Caribbean,40.903221130371094,-73.850830078125,Island Taste Cuisine Restaurant
38,BRONX,Wakefield,Restaurant,40.903746,-73.849711,Ms. Cherry's Restaurant
39,BRONX,Wakefield,Caribbean,40.904222445815016,-73.8495706347532,Keymani Restaurant
40,BRONX,Wakefield,Pub,40.90296619676567,-73.8650589348822,Moriarty's Bar & Restaurant
41,BRONX,Wakefield,Spanish,40.88869802291594,-73.85718581628483,Spanish restaurant
42,BRONX,Wakefield,Pizza,40.9141058255093,-73.85313367306819,Sal's Pizza Restaurant
43,BRONX,Wakefield,Caribbean,40.88416027552436,-73.85646960124667,The Good Dine Restaurant
44,BRONX,Wakefield,Restaurant,40.89332697452258,-73.8636751426058,Rey De Copas Restaurant & Bar
45,BRONX,Wakefield,Caribbean,40.890071,-73.859219,Sweet Pot Jamaican Restaurant
46,BRONX,Wakefield,Chinese,40.89900675,-73.83378708333333,Golden Gate Chinese Restaurant
47,BRONX,Wakefield,Bakery,40.88418,-73.84932,Yard Style Caribbean Restaurant and Bakery
48,BRONX,Wakefield,Indian,40.88935,-73.859614,Sell Off Restaurant
49,BRONX,Wakefield,,40.90449431728033,-73.85349312175397,Cafe Restaurant
50,BRONX,Co-op City,Chinese,40.86954,-73.84273,No. 1 Chinese Restaurant
51,BRONX,Co-op City,Chinese,40.8887854684858,-73.83122576835156,Xing Lung Chinese Restaurant
52,BRONX,Co-op City,Restaurant,40.876085887834265,-73.82886815052547,Townhouse Restaurant
53,BRONX,Co-op City,Chinese,40.87660292677318,-73.82971005218339,Guang Hui Chinese Restaurant
54,BRONX,Co-op City,Diner,40.88633207186384,-73.82761561924221,Cozy Cottage Restaurant
55,BRONX,Co-op City,Asian,40.8841792178673,-73.83268490851218,Jimmy's Best Chinese Restaurant
56,BRONX,Co-op City,Caribbean,40.87552302991695,-73.84979088186739,Richie Rich Caribbean Taste Restaurant
57,BRONX,Co-op City,American,40.881891042941035,-73.82853259809471,TOWN  HOUSE RESTAURANT 129 DREISER LOOP CO-OP CITY
58,BRONX,Co-op City,Sandwiches,40.863352,-73.827074,Subway restaurant
59,BRONX,Co-op City,Chinese,40.884636,-73.83173,Kim Wong Chinese Restaurant Co
60,BRONX,Co-op City,,40.865369,-73.822453,Cuba Restaurant
61,BRONX,Co-op City,Caribbean,40.88436878845637,-73.83211203676869,Pimento Caribbean Restaurant
62,BRONX,Co-op City,Chinese,40.88323041944512,-73.83525260772788,Best Chinese Restaurant
63,BRONX,Co-op City,Lounge,40.869867825851806,-73.84435584591309,Memories Lounge & Restaurant
64,BRONX,Co-op City,American,40.86618631,-73.82647786,Applebee's Grill + Bar
65,BRONX,Co-op City,Lounge,40.87855992231654,-73.84697474389613,Karkajadas Bar Restaurant & Night Club
66,BRONX,Co-op City,Latin American,40.86845014045678,-73.84573996080391,Caridad Restaurant at Kingsbridge
67,BRONX,Co-op City,Spanish,40.876358,-73.84851,El Valle Restaurant
68,BRONX,Co-op City,Food,40.88923,-73.82109,Michael's Italian Family Restaurant
69,BRONX,Co-op City,Spanish,40.86584304086998,-73.83770669702484,Caridad & Louie
70,BRONX,Co-op City,Restaurant,40.870164362171,-73.82890593795487,Seven Seas
71,BRONX,Co-op City,Pizza,40.870351831445014,-73.84617111612273,Nicks Pizza
72,BRONX,Co-op City,Pizza,40.87601797978397,-73.84935772536127,Jerry's Pizza
73,BRONX,Co-op City,Asian,40.87565992541939,-73.85017940066767,Good Taste
74,BRONX,Co-op City,Caribbean,40.87058791667576,-73.84686562384138,Caribbean Rhythms
75,BRONX,Co-op City,Chinese,40.869823,-73.8426826,NumberOneChineseRestaurant
76,BRONX,Co-op City,Caribbean,40.87698,-73.84662,Food Hut
77,BRONX,Co-op City,Laundry,40.883861121861784,-73.84938685599428,Laconia Laundromat
78,BRONX,Co-op City,Chinese,40.87246119976044,-73.85148167610168,Mandarin Wok
79,BRONX,Eastchester,Chinese,40.8887854684858,-73.83122576835156,Xing Lung Chinese Restaurant
80,BRONX,Eastchester,Diner,40.88633207186384,-73.82761561924221,Cozy Cottage Restaurant
81,BRONX,Eastchester,Kitchen Supply,40.898282183198326,-73.82368304989407,Restaurant Depot
82,BRONX,Eastchester,Asian,40.8841792178673,-73.83268490851218,Jimmy's Best Chinese Restaurant
83,BRONX,Eastchester,Caribbean,40.89856350560861,-73.83701585446238,Margaritaville Restaurant and Lounge
84,BRONX,Eastchester,Caribbean,40.88904194096089,-73.84231345242961,Golden Fountain Restaurant
85,BRONX,Eastchester,Chinese,40.884636,-73.83173,Kim Wong Chinese Restaurant Co
86,BRONX,Eastchester,Caribbean,40.88436878845637,-73.83211203676869,Pimento Caribbean Restaurant
87,BRONX,Eastchester,Food,40.88923,-73.82109,Michael's Italian Family Restaurant
88,BRONX,Eastchester,American,40.881891042941035,-73.82853259809471,TOWN  HOUSE RESTAURANT 129 DREISER LOOP CO-OP CITY
89,BRONX,Eastchester,Chinese,40.88323041944512,-73.83525260772788,Best Chinese Restaurant
90,BRONX,Eastchester,Restaurant,40.876085887834265,-73.82886815052547,Townhouse Restaurant
91,BRONX,Eastchester,Chinese,40.87660292677318,-73.82971005218339,Guang Hui Chinese Restaurant
92,BRONX,Eastchester,Chinese,40.89900675,-73.83378708333333,Golden Gate Chinese Restaurant
93,BRONX,Eastchester,Chinese,40.901148,-73.8203736,Great Wall
94,BRONX,Eastchester,Caribbean,40.898151685683544,-73.83887499584462,Ripe Kitchen & Bar
95,BRONX,Fieldston,Chinese,40.90568876262962,-73.90429772559949,Golden Phoenix Chinese Restaurant
96,BRONX,Fieldston,Chinese,40.878259,-73.903043,Mei Chung Mei Restaurant
97,BRONX,Fieldston,Food,40.905967228221755,-73.9045874091824,Skyview Restaurant and Delicatessen
98,BRONX,Fieldston,Nightlife,40.889410572788414,-73.90010849948735,Riverdale Garden Restaurant & Lounge
99,BRONX,Fieldston,Café,40.88526883230445,-73.91010325139408,Moss Café: Farm-To-Table Restaurant and Coffee Shop
100,BRONX,Fieldston,Indian,40.87933115229998,-73.9031922265759,Tazmohol Indian Restaurant
101,BRONX,Fieldston,Chinese,40.87963384721696,-73.90615482464693,Golden City Chinese Restaurant
102,BRONX,Fieldston,Japanese,40.88625663623957,-73.90971942607067,Aoyu Japanese Restaurant
103,BRONX,Fieldston,Diner,40.886357747561455,-73.90989609158233,Blue Bay Restaurant
104,BRONX,Fieldston,Seafood,40.87788463309788,-73.90587282193539,Land & Sea Restaurant
105,BRONX,Fieldston,Chinese,40.8839215445977,-73.89812424226149,Guan Hin Restaurant
106,BRONX,Fieldston,Spanish,40.87933018698782,-73.90459710835415,El Economico Restaurant
107,BRONX,Fieldston,Chinese,40.88639825,-73.90968312999999,Golden Gate Chinese Restaurant
108,BRONX,Fieldston,Japanese,40.887197,-73.907166,Sushikawa Restaurant
109,BRONX,Fieldston,Seafood,40.8867,-73.9116,Rooney's Oceanfront Restaurant
110,BRONX,Fieldston,Caribbean,40.902347564697266,-73.89666748046875,Caribbean Grill Restaurant
111,BRONX,Fieldston,Mexican,40.878252,-73.902936,Picante Picante Mexican Restaurant
112,BRONX,Fieldston,Latin American,40.88070643866,-73.90268654351613,Silhouette Restaurant & Lounge
113,BRONX,Fieldston,Italian,40.885684967041016,-73.8948745727539,Sorrento's Restaurant & Pizza
114,BRONX,Fieldston,Chinese,40.87985314954277,-73.90415679833181,Panda Restaurant
115,BRONX,Fieldston,Latin American,40.88386935271506,-73.89810517996101,Boca Loca Restaurant
116,BRONX,Fieldston,Pizza,40.883504,-73.897787,Acapella Gourmet Pizza & Restaurant
117,BRONX,Fieldston,Food,40.880832,-73.908419,Medio Restaurant Coffee Shop
118,BRONX,Fieldston,Italian,40.880701,-73.903525,Peppino's Italian Family Restaurant
119,BRONX,Fieldston,Deli / Bodega,40.88558431627006,-73.90967819364165,Liebman's Kosher Deli
120,BRONX,Fieldston,Food,40.879022,-73.904657,Seven Stars Restaurant
121,BRONX,Fieldston,Diner,40.87918060862063,-73.91009340274243,blue bay restaurant
122,BRONX,Fieldston,Chinese,40.879274275841276,-73.90608592752868,Pioneer Chinese Restaurant
123,BRONX,Fieldston,Chinese,40.878017,-73.903248,King's Wok Chinese Restaurant
124,BRONX,Fieldston,Pizza,40.88712132107213,-73.90430120748528,Goodfella's Pizza
125,BRONX,Fieldston,Building,40.907882928930526,-73.90595961608197,Skyview
126,BRONX,Fieldston,Pizza,40.90575686550095,-73.9042416969571,Addeo's Riverdale Pizzeria
127,BRONX,Fieldston,Sushi,40.90567203906053,-73.90430870547758,Tokyo House
128,BRONX,Fieldston,Mexican,40.89147882667728,-73.89766062927612,Santa Fe Grill & Bar
129,BRONX,Fieldston,Chinese,40.905361302079534,-73.90093988769202,New China
130,BRONX,Fieldston,Diner,40.88670517,-73.90728901,Blue Sky Diner
131,BRONX,Fieldston,Caribbean,40.87933806746814,-73.90445707056641,El Malecon
132,BRONX,Fieldston,Coffee Shop,40.90735450795435,-73.90416054486849,Noni's Coffee Shop
133,BRONX,Fieldston,Pizza,40.88566839694977,-73.91031324863434,Best Pizza
134,BRONX,Fieldston,Sushi,40.88721439098955,-73.90470772598609,Yokohama
135,BRONX,Fieldston,Thai,40.88621093794359,-73.90999084202346,Nam Thai
136,BRONX,Fieldston,Chinese,40.88730094034458,-73.90518157696937,New Kam Sheng
137,BRONX,Fieldston,Chinese,40.881297351281106,-73.90869825954931,Mei Fung Chinese Take Out
138,BRONX,Fieldston,Pizza,40.879834,-73.904336,Bari's
139,BRONX,Fieldston,Deli / Bodega,40.87897676257289,-73.90488596548055,Bus Stop Convenience Store
140,BRONX,Fieldston,Sandwiches,40.877720351115315,-73.90537973066263,Subway
141,BRONX,Fieldston,Latin American,40.87891842943982,-73.90523619440141,La Tia
142,BRONX,Fieldston,Pizza,40.88356615627457,-73.90180851709593,Tony & Cyndi's Pizzeria & Restaurants
143,BRONX,Riverdale,Chinese,40.878259,-73.903043,Mei Chung Mei Restaurant
144,BRONX,Riverdale,Café,40.88526883230445,-73.91010325139408,Moss Café: Farm-To-Table Restaurant and Coffee Shop
145,BRONX,Riverdale,Chinese,40.90568876262962,-73.90429772559949,Golden Phoenix Chinese Restaurant
146,BRONX,Riverdale,Nightlife,40.889410572788414,-73.90010849948735,Riverdale Garden Restaurant & Lounge
147,BRONX,Riverdale,Food,40.905967228221755,-73.9045874091824,Skyview Restaurant and Delicatessen
148,BRONX,Riverdale,Chinese,40.87963384721696,-73.90615482464693,Golden City Chinese Restaurant
149,BRONX,Riverdale,Japanese,40.88625663623957,-73.90971942607067,Aoyu Japanese Restaurant
150,BRONX,Riverdale,Indian,40.87933115229998,-73.9031922265759,Tazmohol Indian Restaurant
151,BRONX,Riverdale,Diner,40.886357747561455,-73.90989609158233,Blue Bay Restaurant
152,BRONX,Riverdale,Chinese,40.88639825,-73.90968312999999,Golden Gate Chinese Restaurant
153,BRONX,Riverdale,Seafood,40.87788463309788,-73.90587282193539,Land & Sea Restaurant
154,BRONX,Riverdale,Seafood,40.8867,-73.9116,Rooney's Oceanfront Restaurant
155,BRONX,Riverdale,Spanish,40.87933018698782,-73.90459710835415,El Economico Restaurant
156,BRONX,Riverdale,Japanese,40.887197,-73.907166,Sushikawa Restaurant
157,BRONX,Riverdale,Chinese,40.8839215445977,-73.89812424226149,Guan Hin Restaurant
158,BRONX,Riverdale,Mexican,40.878252,-73.902936,Picante Picante Mexican Restaurant
159,BRONX,Riverdale,Latin American,40.88070643866,-73.90268654351613,Silhouette Restaurant & Lounge
160,BRONX,Riverdale,Chinese,40.87985314954277,-73.90415679833181,Panda Restaurant
161,BRONX,Riverdale,Food,40.880832,-73.908419,Medio Restaurant Coffee Shop
162,BRONX,Riverdale,Deli / Bodega,40.88558431627006,-73.90967819364165,Liebman's Kosher Deli
163,BRONX,Riverdale,Diner,40.87918060862063,-73.91009340274243,blue bay restaurant
164,BRONX,Riverdale,Italian,40.880701,-73.903525,Peppino's Italian Family Restaurant
165,BRONX,Riverdale,Food,40.879022,-73.904657,Seven Stars Restaurant
166,BRONX,Riverdale,Chinese,40.879274275841276,-73.90608592752868,Pioneer Chinese Restaurant
167,BRONX,Riverdale,Food,40.880471,-73.900607,Jala's Restaurant
168,BRONX,Riverdale,Latin American,40.88386935271506,-73.89810517996101,Boca Loca Restaurant
169,BRONX,Riverdale,Food,40.877432,-73.906981,China Wang Restaurant
170,BRONX,Riverdale,Italian,40.885684967041016,-73.8948745727539,Sorrento's Restaurant & Pizza
171,BRONX,Riverdale,Chinese,40.878017,-73.903248,King's Wok Chinese Restaurant
172,BRONX,Riverdale,Pizza,40.883504,-73.897787,Acapella Gourmet Pizza & Restaurant
173,BRONX,Riverdale,Pizza,40.88712132107213,-73.90430120748528,Goodfella's Pizza
174,BRONX,Riverdale,Pizza,40.88566839694977,-73.91031324863434,Best Pizza
175,BRONX,Riverdale,Thai,40.88621093794359,-73.90999084202346,Nam Thai
176,BRONX,Riverdale,Diner,40.88670517,-73.90728901,Blue Sky Diner
177,BRONX,Riverdale,Caribbean,40.87933806746814,-73.90445707056641,El Malecon
178,BRONX,Riverdale,Pizza,40.90575686550095,-73.9042416969571,Addeo's Riverdale Pizzeria
179,BRONX,Riverdale,Sushi,40.88721439098955,-73.90470772598609,Yokohama
180,BRONX,Riverdale,Chinese,40.88730094034458,-73.90518157696937,New Kam Sheng
181,BRONX,Riverdale,Chinese,40.881297351281106,-73.90869825954931,Mei Fung Chinese Take Out
182,BRONX,Riverdale,Sushi,40.90567203906053,-73.90430870547758,Tokyo House
183,BRONX,Riverdale,Pizza,40.879834,-73.904336,Bari's
184,BRONX,Riverdale,Sandwiches,40.877720351115315,-73.90537973066263,Subway
185,BRONX,Riverdale,Deli / Bodega,40.87897676257289,-73.90488596548055,Bus Stop Convenience Store
186,BRONX,Riverdale,Mexican,40.89147882667728,-73.89766062927612,Santa Fe Grill & Bar
187,BRONX,Riverdale,Latin American,40.87891842943982,-73.90523619440141,La Tia
188,BRONX,Riverdale,Chinese,40.905361302079534,-73.90093988769202,New China
189,BRONX,Riverdale,Chinese,40.87434742150794,-73.91054009348214,China Wang
190,BRONX,Riverdale,Pizza,40.88356615627457,-73.90180851709593,Tony & Cyndi's Pizzeria & Restaurants
191,BRONX,Kingsbridge,Chinese,40.878259,-73.903043,Mei Chung Mei Restaurant
192,BRONX,Kingsbridge,Diner,40.87341387211989,-73.88919548256142,Bedford Cafe Restaurant
193,BRONX,Kingsbridge,Indian,40.87933115229998,-73.9031922265759,Tazmohol Indian Restaurant
194,BRONX,Kingsbridge,Diner,40.86735835690342,-73.89762307189106,New Capital Restaurant
195,BRONX,Kingsbridge,Chinese,40.87963384721696,-73.90615482464693,Golden City Chinese Restaurant
196,BRONX,Kingsbridge,Mexican,40.868587693262356,-73.9021044340439,Montezuma Mexican Restaurant
197,BRONX,Kingsbridge,Chinese,40.876495009628975,-73.90326112471668,Luen Hing Chinese Restaurant
198,BRONX,Kingsbridge,Spanish,40.86902,-73.89599,Shalon Restaurant
199,BRONX,Kingsbridge,Café,40.88526883230445,-73.91010325139408,Moss Café: Farm-To-Table Restaurant and Coffee Shop
200,BRONX,Kingsbridge,Spanish,40.87933018698782,-73.90459710835415,El Economico Restaurant
201,BRONX,Kingsbridge,Latin American,40.88070643866,-73.90268654351613,Silhouette Restaurant & Lounge
202,BRONX,Kingsbridge,Seafood,40.87788463309788,-73.90587282193539,Land & Sea Restaurant
203,BRONX,Kingsbridge,Nightlife,40.889410572788414,-73.90010849948735,Riverdale Garden Restaurant & Lounge
204,BRONX,Kingsbridge,Chinese,40.873077802879685,-73.88908621196552,Choi Yuan - Chinese Restaurant
205,BRONX,Kingsbridge,Mexican,40.878252,-73.902936,Picante Picante Mexican Restaurant
206,BRONX,Kingsbridge,Chinese,40.872296,-73.889705,Red Star Chinese Restaurant
207,BRONX,Kingsbridge,Chinese,40.8839215445977,-73.89812424226149,Guan Hin Restaurant
208,BRONX,Kingsbridge,Italian,40.880701,-73.903525,Peppino's Italian Family Restaurant
209,BRONX,Kingsbridge,Chinese,40.868193740120354,-73.90239415467141,Yu Hua Restaurant
210,BRONX,Kingsbridge,Chinese,40.87985314954277,-73.90415679833181,Panda Restaurant
211,BRONX,Kingsbridge,Bar,40.86709566612714,-73.89848412931386,Sabroso Mangu Restaurant Sporta Bar
212,BRONX,Kingsbridge,Caribbean,40.86694227090185,-73.89776642158348,Nicey Nice Jamaican Restaurant
213,BRONX,Kingsbridge,Japanese,40.88625663623957,-73.90971942607067,Aoyu Japanese Restaurant
214,BRONX,Kingsbridge,Food,40.880471,-73.900607,Jala's Restaurant
215,BRONX,Kingsbridge,Diner,40.886357747561455,-73.90989609158233,Blue Bay Restaurant
216,BRONX,Kingsbridge,Food,40.879022,-73.904657,Seven Stars Restaurant
217,BRONX,Kingsbridge,Chinese,40.874906795152626,-73.90125459991064,Foo Hing Restaurant
218,BRONX,Kingsbridge,Chinese,40.878017,-73.903248,King's Wok Chinese Restaurant
219,BRONX,Kingsbridge,Chinese,40.86964790014166,-73.90350800952127,Lucky Star Chinese Restaurant
220,BRONX,Kingsbridge,Chinese,40.879274275841276,-73.90608592752868,Pioneer Chinese Restaurant
221,BRONX,Kingsbridge,Chinese,40.873275654650136,-73.9055117839296,New Yung Hong Chinese Restaurant
222,BRONX,Kingsbridge,American,40.872581481933594,-73.88917541503906,Restaurant Del Prado
223,BRONX,Kingsbridge,Chinese,40.88639825,-73.90968312999999,Golden Gate Chinese Restaurant
224,BRONX,Kingsbridge,Food,40.880832,-73.908419,Medio Restaurant Coffee Shop
225,BRONX,Kingsbridge,Diner,40.87300715055455,-73.88908200028848,National Restaurant & Coffee
226,BRONX,Kingsbridge,Latin American,40.88386935271506,-73.89810517996101,Boca Loca Restaurant
227,BRONX,Kingsbridge,Pizza,40.883504,-73.897787,Acapella Gourmet Pizza & Restaurant
228,BRONX,Kingsbridge,Food,40.877432,-73.906981,China Wang Restaurant
229,BRONX,Kingsbridge,Diner,40.87918060862063,-73.91009340274243,blue bay restaurant
230,BRONX,Kingsbridge,Japanese,40.887197,-73.907166,Sushikawa Restaurant
231,BRONX,Kingsbridge,Italian,40.885684967041016,-73.8948745727539,Sorrento's Restaurant & Pizza
232,BRONX,Kingsbridge,Seafood,40.8867,-73.9116,Rooney's Oceanfront Restaurant
233,BRONX,Kingsbridge,Spanish,40.868090985326056,-73.90034441546595,El Mangu Sabroso Restaurant
234,BRONX,Kingsbridge,Spanish,40.871832496774495,-73.90670025930685,Caridad Spanish Restaurant
235,BRONX,Kingsbridge,Caribbean,40.87933806746814,-73.90445707056641,El Malecon
236,BRONX,Kingsbridge,Mexican,40.868606947767105,-73.89916738462134,Montezuma Restaurant
237,BRONX,Kingsbridge,Food,40.869841,-73.891253,Mei Mei Restaurant
238,BRONX,Kingsbridge,Latin American,40.870885,-73.9150266,Sazones Restaurant
239,BRONX,Kingsbridge,Spanish,40.87056904916253,-73.90290515072732,Tropical Island Restaurant
240,BRONX,Kingsbridge,Mexican,40.867340533952294,-73.89725541207136,La Cocina Restaurant
241,MANHATTAN,Marble Hill,Chinese,40.878259,-73.903043,Mei Chung Mei Restaurant
242,MANHATTAN,Marble Hill,Diner,40.87341387211989,-73.88919548256142,Bedford Cafe Restaurant
243,MANHATTAN,Marble Hill,Mexican,40.868587693262356,-73.9021044340439,Montezuma Mexican Restaurant
244,MANHATTAN,Marble Hill,Diner,40.86735835690342,-73.89762307189106,New Capital Restaurant
245,MANHATTAN,Marble Hill,Chinese,40.87963384721696,-73.90615482464693,Golden City Chinese Restaurant
246,MANHATTAN,Marble Hill,Spanish,40.86902,-73.89599,Shalon Restaurant
247,MANHATTAN,Marble Hill,Chinese,40.876495009628975,-73.90326112471668,Luen Hing Chinese Restaurant
248,MANHATTAN,Marble Hill,Indian,40.87933115229998,-73.9031922265759,Tazmohol Indian Restaurant
249,MANHATTAN,Marble Hill,Dumplings,40.86691721459921,-73.92084396874858,Amy's Restaurant
250,MANHATTAN,Marble Hill,Seafood,40.87788463309788,-73.90587282193539,Land & Sea Restaurant
251,MANHATTAN,Marble Hill,Latin American,40.86457014083862,-73.919136,El Lina Restaurant
252,MANHATTAN,Marble Hill,Café,40.88526883230445,-73.91010325139408,Moss Café: Farm-To-Table Restaurant and Coffee Shop
253,MANHATTAN,Marble Hill,Chinese,40.868193740120354,-73.90239415467141,Yu Hua Restaurant
254,MANHATTAN,Marble Hill,Spanish,40.87933018698782,-73.90459710835415,El Economico Restaurant
255,MANHATTAN,Marble Hill,Spanish,40.86241309700302,-73.90120507887369,El Valle Restaurant Sport Bar
256,MANHATTAN,Marble Hill,Chinese,40.873077802879685,-73.88908621196552,Choi Yuan - Chinese Restaurant
257,MANHATTAN,Marble Hill,Bar,40.86709566612714,-73.89848412931386,Sabroso Mangu Restaurant Sporta Bar
258,MANHATTAN,Marble Hill,Caribbean,40.86694227090185,-73.89776642158348,Nicey Nice Jamaican Restaurant
259,MANHATTAN,Marble Hill,Chinese,40.872296,-73.889705,Red Star Chinese Restaurant
260,MANHATTAN,Marble Hill,Caribbean,40.866491381246924,-73.92534746405153,Caridad Restaurant
261,MANHATTAN,Marble Hill,Mexican,40.878252,-73.902936,Picante Picante Mexican Restaurant
262,MANHATTAN,Marble Hill,Chinese,40.873275654650136,-73.9055117839296,New Yung Hong Chinese Restaurant
263,MANHATTAN,Marble Hill,Chinese,40.86964790014166,-73.90350800952127,Lucky Star Chinese Restaurant
264,MANHATTAN,Marble Hill,Nightlife,40.889410572788414,-73.90010849948735,Riverdale Garden Restaurant & Lounge
265,MANHATTAN,Marble Hill,Caribbean,40.86297617234993,-73.8955788321457,El Puente Restaurant Bar & Grill
266,MANHATTAN,Marble Hill,Diner,40.87918060862063,-73.91009340274243,blue bay restaurant
267,MANHATTAN,Marble Hill,Food,40.877432,-73.906981,China Wang Restaurant
268,MANHATTAN,Marble Hill,Japanese,40.88625663623957,-73.90971942607067,Aoyu Japanese Restaurant
269,MANHATTAN,Marble Hill,Chinese,40.874906795152626,-73.90125459991064,Foo Hing Restaurant
270,MANHATTAN,Marble Hill,Asian,40.86466734086916,-73.90362858105644,Lin Home Chinese Restaurant
271,MANHATTAN,Marble Hill,Latin American,40.88070643866,-73.90268654351613,Silhouette Restaurant & Lounge
272,MANHATTAN,Marble Hill,Diner,40.886357747561455,-73.90989609158233,Blue Bay Restaurant
273,MANHATTAN,Marble Hill,Diner,40.867680702616305,-73.92145899433105,Capitol Restaurant
274,MANHATTAN,Marble Hill,Chinese,40.87985314954277,-73.90415679833181,Panda Restaurant
275,MANHATTAN,Marble Hill,Latin American,40.870885,-73.9150266,Sazones Restaurant
276,MANHATTAN,Marble Hill,Food,40.880832,-73.908419,Medio Restaurant Coffee Shop
277,MANHATTAN,Marble Hill,Seafood,40.86665009012302,-73.92832803732745,Seawalk Restaurant
278,MANHATTAN,Marble Hill,Chinese,40.879274275841276,-73.90608592752868,Pioneer Chinese Restaurant
279,MANHATTAN,Marble Hill,Food,40.879022,-73.904657,Seven Stars Restaurant
280,MANHATTAN,Marble Hill,Chinese,40.8839215445977,-73.89812424226149,Guan Hin Restaurant
281,MANHATTAN,Marble Hill,Restaurant,40.87131,-73.91113,Petropolis Bar & Restaurant
282,MANHATTAN,Marble Hill,American,40.872581481933594,-73.88917541503906,Restaurant Del Prado
283,MANHATTAN,Marble Hill,Spanish,40.871832496774495,-73.90670025930685,Caridad Spanish Restaurant
284,MANHATTAN,Marble Hill,Chinese,40.878017,-73.903248,King's Wok Chinese Restaurant
285,MANHATTAN,Marble Hill,Diner,40.87300715055455,-73.88908200028848,National Restaurant & Coffee
286,MANHATTAN,Marble Hill,Italian,40.880701,-73.903525,Peppino's Italian Family Restaurant
287,MANHATTAN,Marble Hill,Chinese,40.88639825,-73.90968312999999,Golden Gate Chinese Restaurant
288,MANHATTAN,Marble Hill,Diner,40.86273352895031,-73.89677774336448,Fordham Restaurant
289,MANHATTAN,Marble Hill,Spanish,40.868090985326056,-73.90034441546595,El Mangu Sabroso Restaurant
290,MANHATTAN,Marble Hill,Spanish,40.8656581,-73.91953889999999,El Valle Seafood Restaurant
291,BRONX,Woodlawn,Caribbean,40.89976672962223,-73.85713521700312,Big Daddy's Caribbean Taste Restaurant
292,BRONX,Woodlawn,Caribbean,40.89976826898382,-73.85718438589277,Kaieteur Restaurant & Bakery
293,BRONX,Woodlawn,Chinese,40.89825,-73.86689,Good Taste Restaurant
294,BRONX,Woodlawn,Chinese,40.90435864343175,-73.84979461488385,Red Flower Chinese Restaurant
295,BRONX,Woodlawn,Seafood,40.88262,-73.86313,Roc A Tone Restaurant
296,BRONX,Woodlawn,Pub,40.90296619676567,-73.8650589348822,Moriarty's Bar & Restaurant
297,BRONX,Woodlawn,Chinese,40.88328933605379,-73.86294582192514,Chai Hwa Chinese Restaurant
298,BRONX,Woodlawn,,40.9001,-73.867535,Boulevard Restaurant
299,BRONX,Woodlawn,Food,40.900087,-73.867562,Jimmy K's Bar and Restaurant
300,BRONX,Woodlawn,Caribbean,40.89827622104366,-73.85038105139019,Cooler Runnings Jamaican Restaurant Inc
301,BRONX,Woodlawn,,40.892181957536316,-73.86161925532339,231st Street Cafe/Restaurant
302,BRONX,Woodlawn,Restaurant,40.89332697452258,-73.8636751426058,Rey De Copas Restaurant & Bar
303,BRONX,Woodlawn,Chinese,40.893725,-73.858407,Ming's Wok Chinese Restaurant
304,BRONX,Woodlawn,Irish,40.903109,-73.865871,Heritage Bar & Restaurant
305,BRONX,Woodlawn,Halal,40.894718170166016,-73.85683536529541,Carifesta Restaurant
306,BRONX,Woodlawn,Mexican,40.9019336652974,-73.86155605316162,Tego Restaurant
307,BRONX,Woodlawn,Restaurant,40.894599214207574,-73.85677807270245,Carifesta Halal Restaurant
308,BRONX,Woodlawn,American,40.895257455611954,-73.85891440997341,Barry's West Indian & American Restaurant
309,BRONX,Woodlawn,Latin American,40.89250609999999,-73.8554509,El Jobo Seafood Restaurant
310,BRONX,Woodlawn,Asian,40.89743295245587,-73.85522749080002,excellent taste restaurant
311,BRONX,Woodlawn,American,40.90357339545961,-73.85022836028178,241 St Cafe & Restaurant
312,BRONX,Woodlawn,Restaurant,40.894262,-73.856903,C & M Restaurant
313,BRONX,Woodlawn,Seafood,40.894773,-73.856522,All Island Seafood Restaurant
314,BRONX,Woodlawn,Food,40.897251,-73.855249,Silver Chimes Restaurant
315,BRONX,Woodlawn,Latin American,40.891538975512915,-73.85854686972982,Sabor Latino Restaurant
316,BRONX,Woodlawn,Chinese,40.8930766582489,-73.857547,Jacky Chen's Chinese Restaurant
317,BRONX,Woodlawn,Food,40.891906,-73.858103,Arawak Jamaican Restaurant
318,BRONX,Woodlawn,Food,40.891376,-73.85844,Hoy Lung Restaurant
319,BRONX,Woodlawn,Indian,40.885174,-73.87955,Aman Restaurant
320,BRONX,Woodlawn,Food,40.892772,-73.855867,Pheola's Cariibbean Restaurant
321,BRONX,Woodlawn,Caribbean,40.890071,-73.859219,Sweet Pot Jamaican Restaurant
322,BRONX,Woodlawn,Bar,40.90488814260222,-73.8687924387204,Rory Dolan's
323,BRONX,Woodlawn,Indian,40.88935,-73.859614,Sell Off Restaurant
324,BRONX,Woodlawn,Nightlife,40.88791608206225,-73.8628137399376,The Pyramid Bar & Restaurant
325,BRONX,Woodlawn,Spanish,40.89289063331684,-73.85582475342396,El Mangu Tipico Restaurant
326,BRONX,Woodlawn,Food,40.886191,-73.861253,Rainbow Restaurant
327,BRONX,Woodlawn,Food,40.906614,-73.848799,Rio Cobre Restaurant
328,BRONX,Woodlawn,,40.90449431728033,-73.85349312175397,Cafe Restaurant
329,BRONX,Woodlawn,Food,40.886998,-73.860984,Island Breeze Restaurant
330,BRONX,Woodlawn,Spanish,40.88869802291594,-73.85718581628483,Spanish restaurant
331,BRONX,Woodlawn,Food,40.898318,-73.850442,Fort Negril Jamaican Restaurant
332,BRONX,Woodlawn,Caribbean,40.90538389397327,-73.84942131452463,Cheffy Two Caribbean & American Restaurant
333,BRONX,Woodlawn,Food,40.902851,-73.850657,In Thing Jamaican Restaurant
334,BRONX,Woodlawn,Restaurant,40.88909174801313,-73.85954037535268,Mango Caribbean Restaurant
335,BRONX,Woodlawn,Food,40.903243,-73.850583,Crystals Restaurant and Bar
336,BRONX,Woodlawn,Bar,40.90868016798427,-73.8784646987915,Hibernian Bar and Restaurant
337,BRONX,Woodlawn,Caribbean,40.903221130371094,-73.850830078125,Island Taste Cuisine Restaurant
338,BRONX,Woodlawn,Food,40.88709,-73.878019,Lacabina Restaurant
339,BRONX,Woodlawn,Food,40.903463,-73.850348,Two Four One St Cafe Restaurant
340,BRONX,Woodlawn,Food,40.89813,-73.848516,Cool Running Restaurant
341,BRONX,Norwood,Diner,40.87341387211989,-73.88919548256142,Bedford Cafe Restaurant
342,BRONX,Norwood,Spanish,40.88258085653457,-73.88111747749421,Caribe Restaurant
343,BRONX,Norwood,Chinese,40.873077802879685,-73.88908621196552,Choi Yuan - Chinese Restaurant
344,BRONX,Norwood,Mexican,40.87884586964903,-73.87303547467053,La Familia Restaurant Mexicano
345,BRONX,Norwood,Chinese,40.87881065801869,-73.87319051935722,China One Chinese Restaurant
346,BRONX,Norwood,Spanish,40.86902,-73.89599,Shalon Restaurant
347,BRONX,Norwood,Mexican,40.876673893531446,-73.87967931667352,Mar y Tierra Restaurant and Lounge
348,BRONX,Norwood,Chinese,40.872296,-73.889705,Red Star Chinese Restaurant
349,BRONX,Norwood,Seafood,40.88262,-73.86313,Roc A Tone Restaurant
350,BRONX,Norwood,Caribbean,40.88180629979162,-73.87934052637706,Rochambeau Restaurant (Bill's)
351,BRONX,Norwood,Chinese,40.88328933605379,-73.86294582192514,Chai Hwa Chinese Restaurant
352,BRONX,Norwood,Diner,40.87300715055455,-73.88908200028848,National Restaurant & Coffee
353,BRONX,Norwood,Chinese,40.8736,-73.884726,Kawah Chinese Restaurant
354,BRONX,Norwood,American,40.872581481933594,-73.88917541503906,Restaurant Del Prado
355,BRONX,Norwood,Latin American,40.88258904746662,-73.88146672883386,El Valled Restaurant
356,BRONX,Norwood,Indian,40.885174,-73.87955,Aman Restaurant
357,BRONX,Norwood,Pizza,40.88165878253924,-73.87981138730832,Mario's Pizzeria & Restaurant
358,BRONX,Norwood,Chinese,40.879734,-73.87580179564259,Sing Fei Chinese Restaurant
359,BRONX,Norwood,Food,40.880312,-73.882832,El Rey Del Bistec Restaurant
360,BRONX,Norwood,Spanish,40.88110953693113,-73.88314183474664,Oasis restaurant
361,BRONX,Norwood,Nightlife,40.889410572788414,-73.90010849948735,Riverdale Garden Restaurant & Lounge
362,BRONX,Norwood,Caribbean,40.87831734468153,-73.87398871043425,Golden Ring Restaurant
363,BRONX,Norwood,Food,40.880642,-73.883687,Hing Fong Restaurant
364,BRONX,Norwood,Chinese,40.873673,-73.884128,New China-Chinese Restaurant
365,BRONX,Norwood,Tanning Salon,40.88240274609351,-73.88017314554769,Ten Tan Chinese Restaurant
366,BRONX,Norwood,Food,40.88251,-73.881471,New Restaurant
367,BRONX,Norwood,Pizza,40.8721599,-73.87538278333334,Drillonas Pizzeria Restaurant
368,BRONX,Norwood,African,40.875404,-73.88727,Obaapa African Restaurant
369,BRONX,Norwood,Coffee Shop,40.871124,-73.876816,Webster Coffee Shop Prestige Restaurant
370,BRONX,Norwood,Mexican,40.871000854105546,-73.86534051038957,La Estrella Bar & Restaurant
371,BRONX,Norwood,Mexican,40.882090574787696,-73.88137610002849,Tequilaz Restaurant Lounge
372,BRONX,Norwood,Caribbean,40.87988335318303,-73.86488109999719,A&M Cool Carribean Restaurant
373,BRONX,Norwood,Caribbean,40.868573,-73.881469,Right Taste Caribbean Restaurant
374,BRONX,Norwood,Food,40.869841,-73.891253,Mei Mei Restaurant
375,BRONX,Norwood,Chinese,40.8839215445977,-73.89812424226149,Guan Hin Restaurant
376,BRONX,Norwood,Food,40.872765,-73.888614,Waj Kang Take Out Restaurant
377,BRONX,Norwood,Pizza,40.86753888560105,-73.8837287810681,Rocco's Pizza Restaurant
378,BRONX,Norwood,Chinese,40.872401,-73.889804,Golden House Chinese Restaurant
379,BRONX,Norwood,Chinese,40.871181206606806,-73.88675855253665,Hung Hing Chinese Restaurant
380,BRONX,Norwood,Food,40.88709,-73.878019,Lacabina Restaurant
381,BRONX,Norwood,Historic Site,40.87811169112755,-73.86629378352589,"Louis Restaurant ""Godfather"""
382,BRONX,Norwood,American,40.877842,-73.865973,Coconut Palm Restaurant - Bar & Grill
383,BRONX,Norwood,Food,40.873034,-73.867176,El Bandido Restaurant
384,BRONX,Norwood,Food,40.867258,-73.883625,Mikes Pizzeria and Restaurant
385,BRONX,Norwood,Chinese,40.86887509532327,-73.8893546904054,New Xing Wang Chinese Restaurant
386,BRONX,Norwood,Food,40.879477,-73.865171,"Krc Restaurant, Grill and Bakery"
387,BRONX,Norwood,Chinese,40.88064938576537,-73.88327353256093,Wok Wok
388,BRONX,Norwood,Bakery,40.879496,-73.864989,Food Hut Restaurant and Bakery
389,BRONX,Norwood,Food,40.869738,-73.890263,"Maxima Restaurant, L.P"
390,BRONX,Norwood,Mexican,40.8695505000651,-73.8900634925812,Pique Restaurant
391,BRONX,Williamsbridge,Seafood,40.88262,-73.86313,Roc A Tone Restaurant
392,BRONX,Williamsbridge,Chinese,40.88328933605379,-73.86294582192514,Chai Hwa Chinese Restaurant
393,BRONX,Williamsbridge,Pizza,40.87581401408219,-73.85893009224813,D'angelo's Italian Pizzeria & Restaurant
394,BRONX,Williamsbridge,Caribbean,40.89976672962223,-73.85713521700312,Big Daddy's Caribbean Taste Restaurant
395,BRONX,Williamsbridge,Mexican,40.87884586964903,-73.87303547467053,La Familia Restaurant Mexicano
396,BRONX,Williamsbridge,Chinese,40.87881065801869,-73.87319051935722,China One Chinese Restaurant
397,BRONX,Williamsbridge,Chinese,40.86954,-73.84273,No. 1 Chinese Restaurant
398,BRONX,Williamsbridge,Food,40.88263,-73.856569,R and D's Restaurant
399,BRONX,Williamsbridge,Caribbean,40.87552302991695,-73.84979088186739,Richie Rich Caribbean Taste Restaurant
400,BRONX,Williamsbridge,Caribbean,40.88416027552436,-73.85646960124667,The Good Dine Restaurant
401,BRONX,Williamsbridge,Caribbean,40.89976826898382,-73.85718438589277,Kaieteur Restaurant & Bakery
402,BRONX,Williamsbridge,Food,40.883042,-73.856404,Axum Italian Restaurant
403,BRONX,Williamsbridge,Caribbean,40.87988335318303,-73.86488109999719,A&M Cool Carribean Restaurant
404,BRONX,Williamsbridge,Design,40.869440269224285,-73.85426044464111,Restaurant Keys
405,BRONX,Williamsbridge,Caribbean,40.87875617541513,-73.86142176125453,Top Of The Hill Restaurant
406,BRONX,Williamsbridge,Food,40.884056,-73.862595,Flame Bar and Grill Restaurant
407,BRONX,Williamsbridge,Caribbean,40.88625385733291,-73.85120740676203,Lammy's Restaurant
408,BRONX,Williamsbridge,Food,40.880889,-73.864107,Citytropics Restaurant
409,BRONX,Williamsbridge,Food,40.886191,-73.861253,Rainbow Restaurant
410,BRONX,Williamsbridge,Caribbean,40.880779,-73.86433,Fish Pot West Indian Restaurant
411,BRONX,Williamsbridge,African,40.880609,-73.864441,nana's african restaurant
412,BRONX,Williamsbridge,Food,40.880378,-73.864567,Jacarand Restaurant
413,BRONX,Williamsbridge,American,40.87680662096625,-73.86228561401366,Pinch Restaurant
414,BRONX,Williamsbridge,Caribbean,40.89827622104366,-73.85038105139019,Cooler Runnings Jamaican Restaurant Inc
415,BRONX,Williamsbridge,,40.892181957536316,-73.86161925532339,231st Street Cafe/Restaurant
416,BRONX,Williamsbridge,Bakery,40.879496,-73.864989,Food Hut Restaurant and Bakery
417,BRONX,Williamsbridge,Caribbean,40.88904194096089,-73.84231345242961,Golden Fountain Restaurant
418,BRONX,Williamsbridge,Food,40.879477,-73.865171,"Krc Restaurant, Grill and Bakery"
419,BRONX,Williamsbridge,Food,40.886998,-73.860984,Island Breeze Restaurant
420,BRONX,Williamsbridge,Mexican,40.871000854105546,-73.86534051038957,La Estrella Bar & Restaurant
421,BRONX,Williamsbridge,Bakery,40.88418,-73.84932,Yard Style Caribbean Restaurant and Bakery
422,BRONX,Williamsbridge,,40.874173495004975,-73.86067170226958,Azumi Peruvian Restaurant
423,BRONX,Williamsbridge,American,40.877842,-73.865973,Coconut Palm Restaurant - Bar & Grill
424,BRONX,Williamsbridge,Historic Site,40.87811169112755,-73.86629378352589,"Louis Restaurant ""Godfather"""
425,BRONX,Williamsbridge,Spanish,40.88869802291594,-73.85718581628483,Spanish restaurant
426,BRONX,Williamsbridge,Latin American,40.89250609999999,-73.8554509,El Jobo Seafood Restaurant
427,BRONX,Williamsbridge,Nightlife,40.88791608206225,-73.8628137399376,The Pyramid Bar & Restaurant
428,BRONX,Williamsbridge,Spanish,40.876358,-73.84851,El Valle Restaurant
429,BRONX,Williamsbridge,Lounge,40.87855992231654,-73.84697474389613,Karkajadas Bar Restaurant & Night Club
430,BRONX,Williamsbridge,Indian,40.88935,-73.859614,Sell Off Restaurant
431,BRONX,Williamsbridge,Chinese,40.893725,-73.858407,Ming's Wok Chinese Restaurant
432,BRONX,Williamsbridge,Caribbean,40.890071,-73.859219,Sweet Pot Jamaican Restaurant
433,BRONX,Williamsbridge,Halal,40.894718170166016,-73.85683536529541,Carifesta Restaurant
434,BRONX,Williamsbridge,Latin American,40.891538975512915,-73.85854686972982,Sabor Latino Restaurant
435,BRONX,Williamsbridge,Restaurant,40.88909174801313,-73.85954037535268,Mango Caribbean Restaurant
436,BRONX,Williamsbridge,Food,40.891376,-73.85844,Hoy Lung Restaurant
437,BRONX,Williamsbridge,Restaurant,40.89332697452258,-73.8636751426058,Rey De Copas Restaurant & Bar
438,BRONX,Williamsbridge,Food,40.891906,-73.858103,Arawak Jamaican Restaurant
439,BRONX,Williamsbridge,Food,40.873034,-73.867176,El Bandido Restaurant
440,BRONX,Williamsbridge,Food,40.871393,-73.864649,Aunt PS Restaurant
441,BRONX,Baychester,Chinese,40.86954,-73.84273,No. 1 Chinese Restaurant
442,BRONX,Baychester,Pizza,40.86229977721087,-73.84322966910922,Villa Maria Restaurant
443,BRONX,Baychester,Design,40.869440269224285,-73.85426044464111,Restaurant Keys
444,BRONX,Baychester,Caribbean,40.87552302991695,-73.84979088186739,Richie Rich Caribbean Taste Restaurant
445,BRONX,Baychester,Sandwiches,40.863352,-73.827074,Subway restaurant
446,BRONX,Baychester,Chinese,40.862681746481606,-73.843534561531,Rich Restaurant
447,BRONX,Baychester,Spanish,40.86584304086998,-73.83770669702484,Caridad & Louie
448,BRONX,Baychester,Latin American,40.86845014045678,-73.84573996080391,Caridad Restaurant at Kingsbridge
449,BRONX,Baychester,Lounge,40.869867825851806,-73.84435584591309,Memories Lounge & Restaurant
450,BRONX,Baychester,Restaurant,40.876085887834265,-73.82886815052547,Townhouse Restaurant
451,BRONX,Baychester,Italian,40.85178560311938,-73.82978599125016,Giovanni's Italian Restaurant
452,BRONX,Baychester,,40.865369,-73.822453,Cuba Restaurant
453,BRONX,Baychester,Chinese,40.87660292677318,-73.82971005218339,Guang Hui Chinese Restaurant
454,BRONX,Baychester,American,40.86618631,-73.82647786,Applebee's Grill + Bar
455,BRONX,Baychester,Spanish,40.876358,-73.84851,El Valle Restaurant
456,BRONX,Baychester,Lounge,40.87855992231654,-73.84697474389613,Karkajadas Bar Restaurant & Night Club
457,BRONX,Baychester,Pizza,40.870351831445014,-73.84617111612273,Nicks Pizza
458,BRONX,Baychester,Seafood,40.85089426066365,-73.82263947868786,City Island Tapas Restaurant
459,BRONX,Baychester,Italian,40.86301897888721,-73.84360740712835,Fratelli's
460,BRONX,Baychester,Restaurant,40.870164362171,-73.82890593795487,Seven Seas
461,BRONX,Baychester,Chinese,40.869823,-73.8426826,NumberOneChineseRestaurant
462,BRONX,Baychester,Caribbean,40.87058791667576,-73.84686562384138,Caribbean Rhythms
463,BRONX,Baychester,Pizza,40.87601797978397,-73.84935772536127,Jerry's Pizza
464,BRONX,Baychester,Asian,40.87565992541939,-73.85017940066767,Good Taste
465,BRONX,Baychester,Pizza,40.8539428950062,-73.84343692609731,Bella Italia Pizzeria
466,BRONX,Baychester,Caribbean,40.87698,-73.84662,Food Hut
467,BRONX,Baychester,Chinese,40.87246119976044,-73.85148167610168,Mandarin Wok
468,BRONX,Baychester,Chinese,40.85224633545535,-73.8291931219832,King Hing
469,BRONX,Pelham Parkway,Chinese,40.85579022389548,-73.8554550059393,Mr. Q's Chinese Restaurant
470,BRONX,Pelham Parkway,Pizza,40.84576058179042,-73.86384770279791,Primavera Pizzeria & Restaurant
471,BRONX,Pelham Parkway,Chinese,40.85861469035294,-73.86817524478116,No. 8 Chinese Restaurant
472,BRONX,Pelham Parkway,Italian,40.846690187480654,-73.85946017328291,900 Park Restaurant
473,BRONX,Pelham Parkway,Eastern European,40.85946948543914,-73.86639715021442,Zymi Restaurant & Pizza
474,BRONX,Pelham Parkway,Restaurant,40.85834624054555,-73.86827496891706,Steven Restaurant
475,BRONX,Pelham Parkway,Chinese,40.86954,-73.84273,No. 1 Chinese Restaurant
476,BRONX,Pelham Parkway,Pizza,40.8565013,-73.855584,Napolitana Pizza and Restaurant
477,BRONX,Pelham Parkway,Spanish,40.862032,-73.857447,El New Imperial Restaurant
478,BRONX,Pelham Parkway,Food,40.85600510798996,-73.8556898225425,Fresh Tortillas (Tex-Mex Express) & Japanese Restaurant
479,BRONX,Pelham Parkway,Food,40.855538,-73.855415,Venice Pizzeria and Restaurant
480,BRONX,Pelham Parkway,Chinese,40.85526714280669,-73.85518729036599,Great Wall Chinese Restaurant
481,BRONX,Pelham Parkway,Thai,40.855854443108775,-73.85743275917032,Tana Thai Restaurant
482,BRONX,Pelham Parkway,Design,40.869440269224285,-73.85426044464111,Restaurant Keys
483,BRONX,Pelham Parkway,Pizza,40.848876976000696,-73.85437663865966,Captain's Pizzeria & Restaurant
484,BRONX,Pelham Parkway,Pizza,40.852066,-73.852867,Antonio's Pizzeria Restaurant
485,BRONX,Pelham Parkway,Pizza,40.86229977721087,-73.84322966910922,Villa Maria Restaurant
486,BRONX,Pelham Parkway,Spanish,40.86380886984126,-73.85664024369478,Internacional Restaurant & Deli
487,BRONX,Pelham Parkway,Chinese,40.85044992604471,-73.8514715862326,Hong Kong Restaurant
488,BRONX,Pelham Parkway,Chinese,40.862681746481606,-73.843534561531,Rich Restaurant
489,BRONX,Pelham Parkway,Chinese,40.85466635958688,-73.8640771292254,Panda restaurant
490,BRONX,Pelham Parkway,Mexican,40.854583,-73.864488,Tequila Mexican Restaurant
491,BRONX,Pelham Parkway,Food,40.849329,-73.85349,Paulding Bar and Restaurant
492,BRONX,Pelham Parkway,Mexican,40.8656767,-73.8638646,Latin Fusion Restaurant
493,BRONX,Pelham Parkway,Middle Eastern,40.847662,-73.867396,Oasis Restaurant
494,BRONX,Pelham Parkway,Bar,40.85468960782648,-73.86551853162779,Drini (Bar & Restaurant)
495,BRONX,Pelham Parkway,Restaurant,40.859586,-73.866292,La Luna Restaurant
496,BRONX,Pelham Parkway,Caribbean,40.854515,-73.866453,Top Choice Jamaican Restaurant
497,BRONX,Pelham Parkway,Chinese,40.854509074999996,-73.866151,Boe Lee Chinese Restaurant
498,BRONX,Pelham Parkway,Restaurant,40.854538504389986,-73.86787873343802,Rawal Ravali Restaurant
499,BRONX,Pelham Parkway,Sushi,40.853356006929786,-73.85362862246855,Kiraku Hibachi & Sushi
500,BRONX,Pelham Parkway,American,40.86544713740424,-73.86454199699324,Allerton Restaurant
501,BRONX,Pelham Parkway,Mexican,40.85906150115846,-73.86740210129504,Mister Taco Mexican Restaurant
502,BRONX,Pelham Parkway,American,40.8479261674491,-73.85696758743035,Golden Eagle Restaurant
503,BRONX,Pelham Parkway,Food,40.863903,-73.86457,Manny's Restaurant
504,BRONX,Pelham Parkway,Sandwiches,40.855605478019086,-73.86776263401829,Green Restaurant
505,BRONX,Pelham Parkway,Mexican,40.871000854105546,-73.86534051038957,La Estrella Bar & Restaurant
506,BRONX,Pelham Parkway,Food,40.858398,-73.868103,Los Compis Restaurant
507,BRONX,Pelham Parkway,Restaurant,40.854493,-73.867703,C & H Restaurant
508,BRONX,Pelham Parkway,Food,40.854538,-73.867841,Puebla Restaurant
509,BRONX,Pelham Parkway,Food,40.854255,-73.867715,Him Vegetarian Restaurant and Natural Juice Bar
510,BRONX,Pelham Parkway,Food,40.852494,-73.867626,Caridad Restaurant
511,BRONX,Pelham Parkway,Bakery,40.865401,-73.865002,New Boe Sun Chinese Restaurant
512,BRONX,Pelham Parkway,Racetrack,40.865500294341054,-73.86421495301991,Smile Restaurant
513,BRONX,Pelham Parkway,Restaurant,40.846455717643316,-73.86014521121979,Lotus Flame Restaurant
514,BRONX,Pelham Parkway,Spanish,40.86531446641097,-73.86739872330368,JR Primos Restaurant
515,BRONX,Pelham Parkway,,40.848472,-73.866268,Caridad restaurant
516,BRONX,Pelham Parkway,Italian,40.848765529655324,-73.86224195555774,F & J Pine Tavern
517,BRONX,Pelham Parkway,Latin American,40.86845014045678,-73.84573996080391,Caridad Restaurant at Kingsbridge
518,BRONX,Pelham Parkway,Food,40.867864,-73.86735,Bags Soulfood Restaurant
519,BRONX,City Island,Seafood,40.839040879504,-73.78356573420263,Sammy's Fish Box Restaurant
520,BRONX,City Island,Seafood,40.854324971173234,-73.79099628179956,Sea Shore Restaurant & Marina
521,BRONX,City Island,Seafood,40.85769519493201,-73.79077888783675,JP's Seafood Restaurant
522,BRONX,City Island,Seafood,40.83767312139052,-73.78269477692955,Johnny's Famous Reef Restaurant
523,BRONX,City Island,Seafood,40.839552749493905,-73.78354861841915,Sammy's Shrimp Box Restaurant
524,BRONX,City Island,Seafood,40.83748416046763,-73.78307833532608,Tony's Pier Restaurant
525,BRONX,City Island,Italian,40.85332086911106,-73.7906929834723,Portofino Restaurant
526,BRONX,City Island,Seafood,40.84880668044417,-73.78721145699679,Crab Shanty
527,BRONX,City Island,Seafood,40.85689019112494,-73.79143119491891,City Island Lobster House
528,BRONX,City Island,Seafood,40.838420204039004,-73.78294773193306,Lobster Box
529,BRONX,City Island,Chinese,40.840055018557464,-73.78376282458026,City Island Chinese Resturant
530,BRONX,Bedford Park,Diner,40.87341387211989,-73.88919548256142,Bedford Cafe Restaurant
531,BRONX,Bedford Park,Diner,40.86735835690342,-73.89762307189106,New Capital Restaurant
532,BRONX,Bedford Park,Chinese,40.873077802879685,-73.88908621196552,Choi Yuan - Chinese Restaurant
533,BRONX,Bedford Park,Spanish,40.86902,-73.89599,Shalon Restaurant
534,BRONX,Bedford Park,Spanish,40.88258085653457,-73.88111747749421,Caribe Restaurant
535,BRONX,Bedford Park,Chinese,40.872296,-73.889705,Red Star Chinese Restaurant
536,BRONX,Bedford Park,Mexican,40.868587693262356,-73.9021044340439,Montezuma Mexican Restaurant
537,BRONX,Bedford Park,Italian,40.85741189614754,-73.88646821282298,Michaelangelo's Coal Fired Brick Oven Pizza Restaurant
538,BRONX,Bedford Park,Chinese,40.864382,-73.891722,Hing Wang Chinese Restaurant
539,BRONX,Bedford Park,Chinese,40.878259,-73.903043,Mei Chung Mei Restaurant
540,BRONX,Bedford Park,Italian,40.865149,-73.892655,D'Maria Restaurant
541,BRONX,Bedford Park,Italian,40.855704465427415,-73.88744918407676,Ann & Tony's - An Original Arthur Avenue Restaurant
542,BRONX,Bedford Park,Spanish,40.85996623672953,-73.89337323283542,Three  Spanish  Restaurant
543,BRONX,Bedford Park,Caribbean,40.86694227090185,-73.89776642158348,Nicey Nice Jamaican Restaurant
544,BRONX,Bedford Park,Bar,40.86709566612714,-73.89848412931386,Sabroso Mangu Restaurant Sporta Bar
545,BRONX,Bedford Park,Diner,40.87300715055455,-73.88908200028848,National Restaurant & Coffee
546,BRONX,Bedford Park,Caribbean,40.86297617234993,-73.8955788321457,El Puente Restaurant Bar & Grill
547,BRONX,Bedford Park,Spanish,40.86241309700302,-73.90120507887369,El Valle Restaurant Sport Bar
548,BRONX,Bedford Park,Caribbean,40.85993642506994,-73.89310986975298,J & D Caribbean Soul Fish & Chips Restaurant
549,BRONX,Bedford Park,American,40.872581481933594,-73.88917541503906,Restaurant Del Prado
550,BRONX,Bedford Park,Mexican,40.87884586964903,-73.87303547467053,La Familia Restaurant Mexicano
551,BRONX,Bedford Park,Chinese,40.87881065801869,-73.87319051935722,China One Chinese Restaurant
552,BRONX,Bedford Park,Southern / Soul,40.85805463333334,-73.89092347142856,Bernie's Fish 'N' Chips And Restaurant
553,BRONX,Bedford Park,Chinese,40.868193740120354,-73.90239415467141,Yu Hua Restaurant
554,BRONX,Bedford Park,Chinese,40.8736,-73.884726,Kawah Chinese Restaurant
555,BRONX,Bedford Park,Chinese,40.876495009628975,-73.90326112471668,Luen Hing Chinese Restaurant
556,BRONX,Bedford Park,Chinese,40.871181206606806,-73.88675855253665,Hung Hing Chinese Restaurant
557,BRONX,Bedford Park,Indian,40.87933115229998,-73.9031922265759,Tazmohol Indian Restaurant
558,BRONX,Bedford Park,Food,40.869841,-73.891253,Mei Mei Restaurant
559,BRONX,Bedford Park,Pizza,40.86753888560105,-73.8837287810681,Rocco's Pizza Restaurant
560,BRONX,Bedford Park,Caribbean,40.868573,-73.881469,Right Taste Caribbean Restaurant
561,BRONX,Bedford Park,Chinese,40.86887509532327,-73.8893546904054,New Xing Wang Chinese Restaurant
562,BRONX,Bedford Park,Spanish,40.859882414459754,-73.89353476317821,three way spanish restaurant
563,BRONX,Bedford Park,Food,40.867258,-73.883625,Mikes Pizzeria and Restaurant
564,BRONX,Bedford Park,Diner,40.86273352895031,-73.89677774336448,Fordham Restaurant
565,BRONX,Bedford Park,Food,40.872765,-73.888614,Waj Kang Take Out Restaurant
566,BRONX,Bedford Park,Mexican,40.8695505000651,-73.8900634925812,Pique Restaurant
567,BRONX,Bedford Park,Food,40.869738,-73.890263,"Maxima Restaurant, L.P"
568,BRONX,Bedford Park,Chinese,40.873673,-73.884128,New China-Chinese Restaurant
569,BRONX,Bedford Park,Chinese,40.872401,-73.889804,Golden House Chinese Restaurant
570,BRONX,Bedford Park,Mexican,40.86983998935334,-73.89046709970651,Lena Restaurant
571,BRONX,Bedford Park,Chinese,40.86683577106724,-73.89128184742857,New King Wah Chinese Restaurant
572,BRONX,Bedford Park,Mexican,40.865778,-73.88634,El Tenanpa Restaurant
573,BRONX,Bedford Park,Food,40.862981,-73.889664,Los Girasoles Restaurant
574,BRONX,Bedford Park,Chinese,40.86964790014166,-73.90350800952127,Lucky Star Chinese Restaurant
575,BRONX,Bedford Park,Mexican,40.876673893531446,-73.87967931667352,Mar y Tierra Restaurant and Lounge
576,BRONX,Bedford Park,Asian,40.86466734086916,-73.90362858105644,Lin Home Chinese Restaurant
577,BRONX,Bedford Park,Food,40.86539,-73.886833,Bronx African American Restaurant
578,BRONX,Bedford Park,Caribbean,40.88180629979162,-73.87934052637706,Rochambeau Restaurant (Bill's)
579,BRONX,Bedford Park,African,40.875404,-73.88727,Obaapa African Restaurant
580,BRONX,University Heights,Seafood,40.85409398725051,-73.90790419724945,Boca Chica Seafood Restaurant
581,BRONX,University Heights,Caribbean,40.85704070652409,-73.90079800106709,Running Cool Restaurant
582,BRONX,University Heights,Chinese,40.851820939664364,-73.90972595859088,NO.1 restaurant
583,BRONX,University Heights,Mexican,40.868587693262356,-73.9021044340439,Montezuma Mexican Restaurant
584,BRONX,University Heights,Latin American,40.86457014083862,-73.919136,El Lina Restaurant
585,BRONX,University Heights,Latin American,40.863537316038695,-73.92656452238556,Ceci Restaurant
586,BRONX,University Heights,Chinese,40.85850797,-73.90276002,New Peking Restaurant
587,BRONX,University Heights,Spanish,40.8460420585989,-73.91971559956264,Yoly Restaurant
588,BRONX,University Heights,Spanish,40.86241309700302,-73.90120507887369,El Valle Restaurant Sport Bar
589,BRONX,University Heights,Paella,40.849919273820234,-73.91649485754445,Miguelina Cuchifritos Restaurant & Bar
590,BRONX,University Heights,Restaurant,40.84407,-73.92364,Sal Y Pimienta (Bar & Restaurant)
591,BRONX,University Heights,Chinese,40.85386257136328,-73.89916738462134,New Kee Wong Restaurant
592,BRONX,University Heights,Bar,40.860402799484994,-73.90261305058426,El Sonido Del Tren Restaurant
593,BRONX,University Heights,Seafood,40.84476419780634,-73.90277309569508,El Rey Del Marisco Fine Seafood Restaurant
594,BRONX,University Heights,Dumplings,40.86691721459921,-73.92084396874858,Amy's Restaurant
595,BRONX,University Heights,Restaurant,40.86187151302727,-73.90159607950164,Diamante Poblano 1 Bar & Restaurant
596,BRONX,University Heights,Chinese,40.855958906588945,-73.92887841181947,Empire Chinese Restaurant
597,BRONX,University Heights,Spanish,40.85996623672953,-73.89337323283542,Three  Spanish  Restaurant
598,BRONX,University Heights,Chinese,40.85562919771903,-73.91399171283997,NO.1 Chinese Restaurant
599,BRONX,University Heights,Caribbean,40.86297617234993,-73.8955788321457,El Puente Restaurant Bar & Grill
600,BRONX,University Heights,Chinese,40.864382,-73.891722,Hing Wang Chinese Restaurant
601,BRONX,University Heights,Caribbean,40.85993642506994,-73.89310986975298,J & D Caribbean Soul Fish & Chips Restaurant
602,BRONX,University Heights,Bar,40.86709566612714,-73.89848412931386,Sabroso Mangu Restaurant Sporta Bar
603,BRONX,University Heights,Spanish,40.85368728192616,-73.90771624178599,Don Pancholo Lechonera Restaurant
604,BRONX,University Heights,Chinese,40.868193740120354,-73.90239415467141,Yu Hua Restaurant
605,BRONX,University Heights,Caribbean,40.85572635254937,-73.92907059630255,Lulo Restaurant
606,BRONX,University Heights,Restaurant,40.856990156253325,-73.90063355845606,Lulo Restaurant
607,BRONX,University Heights,Restaurant,40.854312,-73.912091,Reyna Restaurant
608,BRONX,University Heights,African,40.85740693073101,-73.89973827631786,Papaye Restaurant
609,BRONX,University Heights,Southern / Soul,40.85805463333334,-73.89092347142856,Bernie's Fish 'N' Chips And Restaurant
610,BRONX,University Heights,Chinese,40.851798,-73.909502,Number One Chinese Restaurant
611,BRONX,University Heights,Chinese,40.8464335,-73.8927257,Rainbow Chinese Restaurant
612,BRONX,University Heights,Italian,40.865149,-73.892655,D'Maria Restaurant
613,BRONX,University Heights,Chinese,40.85230641947553,-73.90770500336878,Happy Land Chinese Restaurant Buffet
614,BRONX,University Heights,Food,40.85592009531313,-73.90553474970604,La Morena Food Restaurant
615,BRONX,University Heights,Restaurant,40.853990985040866,-73.9085054397583,Accra Restaurant - Davidson
616,BRONX,University Heights,Asian,40.86466734086916,-73.90362858105644,Lin Home Chinese Restaurant
617,BRONX,University Heights,Mexican,40.85513006005521,-73.90216449308664,Tacos Puebla Restaurant
618,BRONX,University Heights,Food,40.85395,-73.90838,Paraiso Restaurant
619,BRONX,University Heights,Bar,40.85378646850586,-73.90846252441406,junior Restaurant
620,BRONX,University Heights,Latin American,40.85369520202599,-73.90814134774797,La Jaiba Restaurant
621,BRONX,University Heights,Spanish,40.85406157552978,-73.90789814328255,Junior's Restaurant
622,BRONX,University Heights,Chinese,40.853237,-73.9076,Happy Land Chinese Restaurant
623,BRONX,University Heights,Mexican,40.85738660990084,-73.90676915620794,Las Palomas Mexican Restaurant
624,BRONX,University Heights,Latin American,40.86258987,-73.90720134,Celia's Restaurant Bar & Grill
625,BRONX,University Heights,Mexican,40.85199990502187,-73.90981207837609,Elena's Restaurant
626,BRONX,University Heights,Food,40.855927,-73.90562,El Paraiso Restaurant
627,BRONX,University Heights,Restaurant,40.856427664366876,-73.90517877986734,Morena Restaurant
628,BRONX,University Heights,Spanish,40.859882414459754,-73.89353476317821,three way spanish restaurant
629,BRONX,University Heights,Latin American,40.84995,-73.910415,3 Way Restaurant
630,BRONX,Morris Heights,Spanish,40.8460420585989,-73.91971559956264,Yoly Restaurant
631,BRONX,Morris Heights,Restaurant,40.84407,-73.92364,Sal Y Pimienta (Bar & Restaurant)
632,BRONX,Morris Heights,Latin American,40.83550247618264,-73.92143941036181,Justine Restaurant
633,BRONX,Morris Heights,Paella,40.849919273820234,-73.91649485754445,Miguelina Cuchifritos Restaurant & Bar
634,BRONX,Morris Heights,Mexican,40.835679055626954,-73.92083809929233,Lily's Restaurant
635,BRONX,Morris Heights,Seafood,40.85133231436476,-73.9318637321785,Marisco Centro (Seafood Restaurant & Fish Market)
636,BRONX,Morris Heights,Cuban,40.84730277233024,-73.93815796384422,El Floridita Restaurant
637,BRONX,Morris Heights,Latin American,40.84421594325778,-73.9375667689093,La Nueva España Restaurant
638,BRONX,Morris Heights,Chinese,40.855958906588945,-73.92887841181947,Empire Chinese Restaurant
639,BRONX,Morris Heights,Latin American,40.846679618272816,-73.93548674669283,El Capri Restaurant
640,BRONX,Morris Heights,Latin American,40.863537316038695,-73.92656452238556,Ceci Restaurant
641,BRONX,Morris Heights,Chinese,40.851820939664364,-73.90972595859088,NO.1 restaurant
642,BRONX,Morris Heights,Seafood,40.84476419780634,-73.90277309569508,El Rey Del Marisco Fine Seafood Restaurant
643,BRONX,Morris Heights,Chinese,40.833585175007585,-73.92913639414733,Jing Xin Chinese Restaurant
644,BRONX,Morris Heights,Caribbean,40.85572635254937,-73.92907059630255,Lulo Restaurant
645,BRONX,Morris Heights,Mexican,40.85026024720803,-73.93305176498069,La Villita One Mexican Restaurant
646,BRONX,Morris Heights,Seafood,40.85409398725051,-73.90790419724945,Boca Chica Seafood Restaurant
647,BRONX,Morris Heights,Chinese,40.83644951189376,-73.92404700399292,Win Hin Restaurant
648,BRONX,Morris Heights,Latin American,40.849800232142655,-73.91986942304356,Casa Clema Restaurant & Bar
649,BRONX,Morris Heights,Entertainment,40.841387114346695,-73.91665163421764,La Estrella Bar & Restaurant
650,BRONX,Morris Heights,Restaurant,40.84589603654607,-73.93841321969785,Ranchito Restaurant
651,BRONX,Morris Heights,Spanish,40.848427,-73.91799276732671,Caridad Kitchen Restaurant
652,BRONX,Morris Heights,Chinese,40.83849995501389,-73.91277013937369,Great Wall Chinese Restaurant
653,BRONX,Morris Heights,Food,40.84621,-73.919563,New Panda Restaurant
654,BRONX,Morris Heights,Restaurant,40.8482822,-73.9341529,Tipico Dominicano Restaurant
655,BRONX,Morris Heights,Food,40.846231,-73.918245,Taisha Restaurant
656,BRONX,Morris Heights,Spanish,40.84641528306658,-73.91725842509227,El Valle Restaurant Bar
657,BRONX,Morris Heights,Chinese,40.845207224626876,-73.91521458342721,China Wok Chinese Restaurant
658,BRONX,Morris Heights,Latin American,40.851661009719805,-73.93059453844558,Restaurant 67 Club
659,BRONX,Morris Heights,Chinese,40.8494107,-73.9169903,GREAT WALL CHINESE RESTAURANT
660,BRONX,Morris Heights,Thai,40.84145073169169,-73.938856315647,Tung Thong Thai Restaurant
661,BRONX,Morris Heights,Chinese,40.83937690571816,-73.91698765448601,Sun Fung Chinese Restaurant
662,BRONX,Morris Heights,Chinese,40.85562919771903,-73.91399171283997,NO.1 Chinese Restaurant
663,BRONX,Morris Heights,Breakfast,40.850888432086236,-73.93823069541277,Hudson View Restaurant
664,BRONX,Morris Heights,Spanish,40.843681,-73.912668,Lechonera Dominicana Pollo Sabroso - Del Valle Restaurant
665,BRONX,Morris Heights,Caribbean,40.84069294675826,-73.93859117426405,San Francisco Restaurant
666,BRONX,Morris Heights,Chinese,40.83947464838079,-73.9145658314435,Wing Ling Chinese Restaurant
667,BRONX,Morris Heights,Restaurant,40.843608,-73.912937,La Calidad Express Restaurant
668,BRONX,Morris Heights,Spanish,40.84519546590878,-73.91597815599982,Jerome's Tropical  Restaurant
669,BRONX,Morris Heights,American,40.860710398392705,-73.93264096381543,New Leaf Restaurant
670,BRONX,Morris Heights,Spanish,40.85074,-73.93247,Punto de Sabor Restaurant
671,BRONX,Morris Heights,Nightclub,40.840478174901634,-73.92140752459464,Budda Restaurant & Lounge
672,BRONX,Morris Heights,Chinese,40.851798,-73.909502,Number One Chinese Restaurant
673,BRONX,Morris Heights,Chinese,40.843426,-73.912787,King Dragon Chinese restaurant
674,BRONX,Morris Heights,Food,40.846619,-73.906645,Hop Wong Restaurant
675,BRONX,Morris Heights,Restaurant,40.84417102733609,-73.91539335250854,D'Alcantara Restaurant
676,BRONX,Morris Heights,Food,40.853108,-73.919665,New Maya Restaurant
677,BRONX,Morris Heights,Indian,40.855221723964846,-73.93696683600031,Kismat Indian Restaurant
678,BRONX,Morris Heights,Pizza,40.844282,-73.914597,Pecorinos Restaurant
679,BRONX,Morris Heights,Latin American,40.84995,-73.910415,3 Way Restaurant
680,BRONX,Fordham,Diner,40.86735835690342,-73.89762307189106,New Capital Restaurant
681,BRONX,Fordham,Diner,40.87341387211989,-73.88919548256142,Bedford Cafe Restaurant
682,BRONX,Fordham,Spanish,40.85996623672953,-73.89337323283542,Three  Spanish  Restaurant
683,BRONX,Fordham,Italian,40.85741189614754,-73.88646821282298,Michaelangelo's Coal Fired Brick Oven Pizza Restaurant
684,BRONX,Fordham,Mexican,40.868587693262356,-73.9021044340439,Montezuma Mexican Restaurant
685,BRONX,Fordham,Spanish,40.86902,-73.89599,Shalon Restaurant
686,BRONX,Fordham,Caribbean,40.85704070652409,-73.90079800106709,Running Cool Restaurant
687,BRONX,Fordham,Spanish,40.86241309700302,-73.90120507887369,El Valle Restaurant Sport Bar
688,BRONX,Fordham,Caribbean,40.86297617234993,-73.8955788321457,El Puente Restaurant Bar & Grill
689,BRONX,Fordham,Italian,40.855704465427415,-73.88744918407676,Ann & Tony's - An Original Arthur Avenue Restaurant
690,BRONX,Fordham,Caribbean,40.85993642506994,-73.89310986975298,J & D Caribbean Soul Fish & Chips Restaurant
691,BRONX,Fordham,Chinese,40.864382,-73.891722,Hing Wang Chinese Restaurant
692,BRONX,Fordham,Italian,40.854243777661196,-73.88843667516853,Mario's Restaurant & Catering
693,BRONX,Fordham,Restaurant,40.86187151302727,-73.90159607950164,Diamante Poblano 1 Bar & Restaurant
694,BRONX,Fordham,Italian,40.865149,-73.892655,D'Maria Restaurant
695,BRONX,Fordham,Southern / Soul,40.85805463333334,-73.89092347142856,Bernie's Fish 'N' Chips And Restaurant
696,BRONX,Fordham,Bar,40.860402799484994,-73.90261305058426,El Sonido Del Tren Restaurant
697,BRONX,Fordham,Chinese,40.85850797,-73.90276002,New Peking Restaurant
698,BRONX,Fordham,,40.8608551,-73.8962902,Pisac Pizzaria and Peruvian Restaurant
699,BRONX,Fordham,Caribbean,40.86694227090185,-73.89776642158348,Nicey Nice Jamaican Restaurant
700,BRONX,Fordham,Bar,40.86709566612714,-73.89848412931386,Sabroso Mangu Restaurant Sporta Bar
701,BRONX,Fordham,Chinese,40.85386257136328,-73.89916738462134,New Kee Wong Restaurant
702,BRONX,Fordham,Diner,40.86273352895031,-73.89677774336448,Fordham Restaurant
703,BRONX,Fordham,Spanish,40.859882414459754,-73.89353476317821,three way spanish restaurant
704,BRONX,Fordham,Chinese,40.868193740120354,-73.90239415467141,Yu Hua Restaurant
705,BRONX,Fordham,Chinese,40.873077802879685,-73.88908621196552,Choi Yuan - Chinese Restaurant
706,BRONX,Fordham,African,40.85740693073101,-73.89973827631786,Papaye Restaurant
707,BRONX,Fordham,Chinese,40.872296,-73.889705,Red Star Chinese Restaurant
708,BRONX,Fordham,Seafood,40.85409398725051,-73.90790419724945,Boca Chica Seafood Restaurant
709,BRONX,Fordham,Restaurant,40.856990156253325,-73.90063355845606,Lulo Restaurant
710,BRONX,Fordham,Mexican,40.858884,-73.898557,Lupita's Mexican Restaurant
711,BRONX,Fordham,Asian,40.86466734086916,-73.90362858105644,Lin Home Chinese Restaurant
712,BRONX,Fordham,Chinese,40.851820939664364,-73.90972595859088,NO.1 restaurant
713,BRONX,Fordham,Restaurant,40.85732387430154,-73.89079016503415,Fiesta Bar & Restaurant
714,BRONX,Fordham,Chinese,40.8464335,-73.8927257,Rainbow Chinese Restaurant
715,BRONX,Fordham,Food,40.85591081316757,-73.89475776206886,El Lider Bar and Restaurant
716,BRONX,Fordham,Italian,40.861066944816585,-73.8926374912262,Boca Restaurant And Lounge
717,BRONX,Fordham,,40.86164014547243,-73.89857599571285,J J Restaurant & Cuchifritos
718,BRONX,Fordham,Chinese,40.86166867358581,-73.89387352889577,merry land Chinese restaurant
719,BRONX,Fordham,Chinese,40.86157689,-73.89872299,Szechuan Garden Chinese Restaurant
720,BRONX,Fordham,Chinese,40.876495009628975,-73.90326112471668,Luen Hing Chinese Restaurant
721,BRONX,Fordham,Italian,40.85412010500031,-73.88890998498077,Emilia's Restaurant
722,BRONX,Fordham,Italian,40.85421506482662,-73.88876521498301,Dominick's Restaurant
723,BRONX,Fordham,Spanish,40.854349,-73.891077,JJ Restaurant Sport Bar
724,BRONX,Fordham,Entertainment,40.86295873177164,-73.89554438172233,El Puente Restaurant
725,BRONX,Fordham,Food,40.859328,-73.89356,Right Taste Caribbean Restaurant
726,BRONX,Fordham,Chinese,40.86964790014166,-73.90350800952127,Lucky Star Chinese Restaurant
727,BRONX,Fordham,Spanish,40.85878474230133,-73.89850709591765,Las Balluena Restaurant
728,BRONX,Fordham,Food,40.862981,-73.889664,Los Girasoles Restaurant
729,BRONX,Fordham,Deli / Bodega,40.862097422258046,-73.89259310623386,Splendid Deli & Restaurant
730,BRONX,East Tremont,Spanish,40.845024492543835,-73.89045477152554,JJ Restaurant & Cuchifritos
731,BRONX,East Tremont,Breakfast,40.84487694436569,-73.89010167017649,Cosmos Restaurant
732,BRONX,East Tremont,Chinese,40.8464335,-73.8927257,Rainbow Chinese Restaurant
733,BRONX,East Tremont,Italian,40.85741189614754,-73.88646821282298,Michaelangelo's Coal Fired Brick Oven Pizza Restaurant
734,BRONX,East Tremont,Italian,40.854243777661196,-73.88843667516853,Mario's Restaurant & Catering
735,BRONX,East Tremont,Italian,40.855704465427415,-73.88744918407676,Ann & Tony's - An Original Arthur Avenue Restaurant
736,BRONX,East Tremont,Latin American,40.842819,-73.885786,Roy's Restaurant
737,BRONX,East Tremont,Seafood,40.84476419780634,-73.90277309569508,El Rey Del Marisco Fine Seafood Restaurant
738,BRONX,East Tremont,Spanish,40.83500069974927,-73.89106003308734,Puerto Rican Natural Restaurant & Bar
739,BRONX,East Tremont,Mexican,40.828713,-73.881188,Vista Hermosa Restaurant
740,BRONX,East Tremont,Restaurant,40.8447402308582,-73.88973939863966,El Valle Restaurant
741,BRONX,East Tremont,Caribbean,40.843742,-73.887675,Lounge & Restaurant
742,BRONX,East Tremont,Food,40.842950563825006,-73.8865239035598,El Batey Restaurant
743,BRONX,East Tremont,Chinese,40.84258713040386,-73.88597841254337,Wings Chinese Restaurant
744,BRONX,East Tremont,Chinese,40.85386257136328,-73.89916738462134,New Kee Wong Restaurant
745,BRONX,East Tremont,Food,40.842019,-73.88584,El Provocon Restaurant
746,BRONX,East Tremont,Food,40.84251,-73.885228,La Gran Parada Restaurant
747,BRONX,East Tremont,Asian,40.842446,-73.885114,Beltraneja Restaurant
748,BRONX,East Tremont,Food,40.844165,-73.888593,El Bohio Lechonera Restaurant
749,BRONX,East Tremont,Latin American,40.83396085827499,-73.87702046040503,Deilines Restaurant
750,BRONX,East Tremont,Chinese,40.84524979685354,-73.8829925400397,Lung Fong Chinese Restaurant
751,BRONX,East Tremont,Pizza,40.844807,-73.889935,Linda's Pizza Restaurant
752,BRONX,East Tremont,Food,40.844612,-73.889577,Nice Restaurant
753,BRONX,East Tremont,Italian,40.85412010500031,-73.88890998498077,Emilia's Restaurant
754,BRONX,East Tremont,Pizza,40.841415,-73.883304,Katina Pizza and Restaurant
755,BRONX,East Tremont,American,40.84702041787358,-73.89790198878326,Five Star Restaurant
756,BRONX,East Tremont,Italian,40.85421506482662,-73.88876521498301,Dominick's Restaurant
757,BRONX,East Tremont,Pizza,40.840023326199095,-73.87585497185644,Alitalia Pizzeria Restaurant
758,BRONX,East Tremont,Chinese,40.845402,-73.890701,Galaxy Chinese Restaurant
759,BRONX,East Tremont,Food,40.846002,-73.884628,Gan Sing Restaurant
760,BRONX,East Tremont,Pizza,40.845545,-73.891195,Exclusive Pizza Restaurant
761,BRONX,East Tremont,Caribbean,40.83782,-73.88775,Ranch Restaurant
762,BRONX,East Tremont,Spanish,40.854349,-73.891077,JJ Restaurant Sport Bar
763,BRONX,East Tremont,Food,40.83773,-73.8878,Total Blend Restaurant
764,BRONX,East Tremont,Spanish,40.83727,-73.88723,Despertar Restaurant
765,BRONX,East Tremont,Spanish,40.84805708122792,-73.88867714271967,Los Amigos Restaurant
766,BRONX,East Tremont,Chinese,40.8371,-73.888426,Wah Mee Chinese Restaurant
767,BRONX,East Tremont,Eastern European,40.8540598085638,-73.88695996715562,Cakor Restaurant
768,BRONX,East Tremont,Sandwiches,40.84089660644531,-73.87959289550781,Subway Restaurant
769,BRONX,East Tremont,Chinese,40.83826502785337,-73.90102120494223,Red House Chinese Restaurant
770,BRONX,East Tremont,Mexican,40.84658,-73.89490438333333,Excellent Restaurant
771,BRONX,East Tremont,Caribbean,40.84013,-73.876396,Caribbean Sunshine Restaurant
772,BRONX,East Tremont,Food,40.846486,-73.894336,P and P West Indian Restaurant
773,BRONX,East Tremont,Restaurant,40.85732387430154,-73.89079016503415,Fiesta Bar & Restaurant
774,BRONX,East Tremont,African,40.834202,-73.895007,Asmau Restaurant
775,BRONX,East Tremont,Food,40.85591081316757,-73.89475776206886,El Lider Bar and Restaurant
776,BRONX,East Tremont,Mexican,40.853799010259024,-73.88799385072709,Taco Rey Restaurant #2
777,BRONX,East Tremont,Food,40.846633,-73.895465,New Hong Kong Restaurant
778,BRONX,East Tremont,Latin American,40.855276,-73.887301,Marolo Restaurant
779,BRONX,East Tremont,Pizza,40.850997,-73.888032,Bravo Pizza Restaurant
780,BRONX,West Farms,African,40.83160618354317,-73.86816011813588,Fouta African/American Restaurant
781,BRONX,West Farms,Diner,40.83380247696807,-73.86097247180898,Step-In Restaurant
782,BRONX,West Farms,Pizza,40.84576058179042,-73.86384770279791,Primavera Pizzeria & Restaurant
783,BRONX,West Farms,Mexican,40.828713,-73.881188,Vista Hermosa Restaurant
784,BRONX,West Farms,Spanish,40.845024492543835,-73.89045477152554,JJ Restaurant & Cuchifritos
785,BRONX,West Farms,Chinese,40.83104545891077,-73.8617488768936,General Tso's Chinese Restaurant
786,BRONX,West Farms,Pizza,40.840023326199095,-73.87585497185644,Alitalia Pizzeria Restaurant
787,BRONX,West Farms,Latin American,40.83396085827499,-73.87702046040503,Deilines Restaurant
788,BRONX,West Farms,Italian,40.854243777661196,-73.88843667516853,Mario's Restaurant & Catering
789,BRONX,West Farms,Breakfast,40.84487694436569,-73.89010167017649,Cosmos Restaurant
790,BRONX,West Farms,Spanish,40.83500069974927,-73.89106003308734,Puerto Rican Natural Restaurant & Bar
791,BRONX,West Farms,Caribbean,40.84013,-73.876396,Caribbean Sunshine Restaurant
792,BRONX,West Farms,Chinese,40.84059013089334,-73.8628481961168,Lucky Star Restaurant
793,BRONX,West Farms,Chinese,40.8464335,-73.8927257,Rainbow Chinese Restaurant
794,BRONX,West Farms,Latin American,40.842819,-73.885786,Roy's Restaurant
795,BRONX,West Farms,Sandwiches,40.84089660644531,-73.87959289550781,Subway Restaurant
796,BRONX,West Farms,Chinese,40.84034434920095,-73.85558355142864,L & Y Wing Hing Chinese Restaurant
797,BRONX,West Farms,Spanish,40.84131931176313,-73.87623970661795,Antonio's Restaurant
798,BRONX,West Farms,Restaurant,40.8447402308582,-73.88973939863966,El Valle Restaurant
799,BRONX,West Farms,Mexican,40.840332,-73.873189,Guacamole Restaurant
800,BRONX,West Farms,Chinese,40.840421,-73.873125,Panda East Chinese Restaurant
801,BRONX,West Farms,Chinese,40.84524979685354,-73.8829925400397,Lung Fong Chinese Restaurant
802,BRONX,West Farms,Spanish,40.844268063060944,-73.8716745216062,Caridad Restaurant
803,BRONX,West Farms,Pizza,40.841415,-73.883304,Katina Pizza and Restaurant
804,BRONX,West Farms,Spanish,40.841501506286484,-73.8723291584359,Demi Restaurant
805,BRONX,West Farms,Food,40.834504,-73.87915,Gudas Restaurant
806,BRONX,West Farms,Caribbean,40.833041,-73.862047,MS Caridad Restaurant
807,BRONX,West Farms,Caribbean,40.843742,-73.887675,Lounge & Restaurant
808,BRONX,West Farms,Diner,40.82962333548923,-73.87464379287216,The New Ranch Restaurant
809,BRONX,West Farms,Asian,40.842446,-73.885114,Beltraneja Restaurant
810,BRONX,West Farms,Middle Eastern,40.847662,-73.867396,Oasis Restaurant
811,BRONX,West Farms,Food,40.84251,-73.885228,La Gran Parada Restaurant
812,BRONX,West Farms,Food,40.842019,-73.88584,El Provocon Restaurant
813,BRONX,West Farms,Chinese,40.832729,-73.867603,Hot Mandarin Wok Chinese Restaurant
814,BRONX,West Farms,Spanish,40.83727,-73.88723,Despertar Restaurant
815,BRONX,West Farms,Italian,40.85412010500031,-73.88890998498077,Emilia's Restaurant
816,BRONX,West Farms,Caribbean,40.83782,-73.88775,Ranch Restaurant
817,BRONX,West Farms,Asian,40.836454,-73.86056258980652,Dynasty Chinese Restaurant
818,BRONX,West Farms,Chinese,40.84258713040386,-73.88597841254337,Wings Chinese Restaurant
819,BRONX,West Farms,Italian,40.85421506482662,-73.88876521498301,Dominick's Restaurant
820,BRONX,West Farms,Food,40.83773,-73.8878,Total Blend Restaurant
821,BRONX,West Farms,Food,40.842950563825006,-73.8865239035598,El Batey Restaurant
822,BRONX,West Farms,Caribbean,40.837548,-73.867127,D' Mera Restaurant
823,BRONX,West Farms,Food,40.846002,-73.884628,Gan Sing Restaurant
824,BRONX,West Farms,Food,40.831583,-73.881495,Timbiriche Restaurant
825,BRONX,West Farms,Chinese,40.8371,-73.888426,Wah Mee Chinese Restaurant
826,BRONX,West Farms,,40.836432928848545,-73.86716091350472,Archers Latin Restaurant
827,BRONX,West Farms,Mexican,40.831473,-73.867768,Revolucionarios Restaurant
828,BRONX,West Farms,Food,40.830673,-73.874862,Ocean Rock Restaurant
829,BRONX,West Farms,Food,40.830647,-73.874866,Little Rock Restaurant
830,BRONX,High  Bridge,Latin American,40.83550247618264,-73.92143941036181,Justine Restaurant
831,BRONX,High  Bridge,Mexican,40.835679055626954,-73.92083809929233,Lily's Restaurant
832,BRONX,High  Bridge,American,40.82781643711514,-73.92477798768978,Crown Donut Family Restaurant
833,BRONX,High  Bridge,Chinese,40.82833468772532,-73.92456283675949,New Sunflower Restaurant
834,BRONX,High  Bridge,Chinese,40.833585175007585,-73.92913639414733,Jing Xin Chinese Restaurant
835,BRONX,High  Bridge,Chinese,40.83644951189376,-73.92404700399292,Win Hin Restaurant
836,BRONX,High  Bridge,Restaurant,40.84407,-73.92364,Sal Y Pimienta (Bar & Restaurant)
837,BRONX,High  Bridge,Latin American,40.84421594325778,-73.9375667689093,La Nueva España Restaurant
838,BRONX,High  Bridge,Cuban,40.84730277233024,-73.93815796384422,El Floridita Restaurant
839,BRONX,High  Bridge,Spanish,40.8460420585989,-73.91971559956264,Yoly Restaurant
840,BRONX,High  Bridge,Chinese,40.83628406737483,-73.94007220915071,Splendid China Restaurant
841,BRONX,High  Bridge,Spanish,40.84415209990029,-73.93903971893742,Galicia Restaurant
842,BRONX,High  Bridge,Mexican,40.83326308646195,-73.94174275481879,La Oaxaqueña Restaurant
843,BRONX,High  Bridge,Chinese,40.837714063687,-73.94224186826041,First Choice Chinese Restaurant
844,BRONX,High  Bridge,Latin American,40.846679618272816,-73.93548674669283,El Capri Restaurant
845,BRONX,High  Bridge,Diner,40.834869,-73.944614,Coral Restaurant
846,BRONX,High  Bridge,Seafood,40.85133231436476,-73.9318637321785,Marisco Centro (Seafood Restaurant & Fish Market)
847,BRONX,High  Bridge,Caribbean,40.82320008936892,-73.92359649410736,Salena's West Indian Restaurant
848,BRONX,High  Bridge,Caribbean,40.83485879350122,-73.94072087590311,L'Fonda Family Restaurant
849,BRONX,High  Bridge,Restaurant,40.84589603654607,-73.93841321969785,Ranchito Restaurant
850,BRONX,High  Bridge,Chinese,40.836345177964446,-73.94291943820092,Number 1 Restaurant
851,BRONX,High  Bridge,Asian,40.831183649844334,-73.9414499058546,Yang Fan Restaurant
852,BRONX,High  Bridge,Thai,40.84145073169169,-73.938856315647,Tung Thong Thai Restaurant
853,BRONX,High  Bridge,Chinese,40.855958906588945,-73.92887841181947,Empire Chinese Restaurant
854,BRONX,High  Bridge,Chinese,40.83849995501389,-73.91277013937369,Great Wall Chinese Restaurant
855,BRONX,High  Bridge,Seafood,40.83508336351872,-73.92166498689815,Boca Chica Seafood Restaurant
856,BRONX,High  Bridge,Caribbean,40.84069294675826,-73.93859117426405,San Francisco Restaurant
857,BRONX,High  Bridge,Paella,40.849919273820234,-73.91649485754445,Miguelina Cuchifritos Restaurant & Bar
858,BRONX,High  Bridge,Mexican,40.85026024720803,-73.93305176498069,La Villita One Mexican Restaurant
859,BRONX,High  Bridge,Entertainment,40.841387114346695,-73.91665163421764,La Estrella Bar & Restaurant
860,BRONX,High  Bridge,African,40.83270786399353,-73.91779130262807,Papaye Restaurant
861,BRONX,High  Bridge,Italian,40.838778,-73.94121,Antika Restaurant & Pizzeria
862,BRONX,High  Bridge,Chinese,40.835611261449365,-73.92134030301085,La Nueva Win Hing Restaurant
863,BRONX,High  Bridge,Chinese,40.83937690571816,-73.91698765448601,Sun Fung Chinese Restaurant
864,BRONX,High  Bridge,Food,40.829147,-73.915981,Doro's Jamaican Restaurant
865,BRONX,High  Bridge,Latin American,40.837323,-73.920619,Valle Restaurant & Sports Bar
866,BRONX,High  Bridge,Nightclub,40.840478174901634,-73.92140752459464,Budda Restaurant & Lounge
867,BRONX,High  Bridge,Latin American,40.8302142,-73.9476603269577,El Nuevo Amanecer Restaurant
868,BRONX,High  Bridge,Restaurant,40.8482822,-73.9341529,Tipico Dominicano Restaurant
869,BRONX,High  Bridge,Restaurant,40.838771,-73.928139,Mima's Kitchen Restaurant
870,BRONX,High  Bridge,Food,40.838155,-73.912936,Restaurant Nuevo Robles
871,BRONX,High  Bridge,Food,40.837281,-73.92251,Eye Adom African and American Restaurant
872,BRONX,High  Bridge,Food,40.834308,-73.928202,Delsur Restaurant
873,BRONX,High  Bridge,Caribbean,40.85572635254937,-73.92907059630255,Lulo Restaurant
874,BRONX,High  Bridge,Chinese,40.839287,-73.928399,Lucky House Restaurant
875,BRONX,High  Bridge,Chinese,40.83947464838079,-73.9145658314435,Wing Ling Chinese Restaurant
876,BRONX,High  Bridge,Food,40.840156,-73.925476,Andy Mar Restaurant
877,BRONX,High  Bridge,Food,40.83699,-73.921252,Navarrete Restaurant
878,BRONX,High  Bridge,Spanish,40.83326454410036,-73.92902157917035,La Fuente Restaurant
879,BRONX,High  Bridge,Food,40.833363,-73.929132,Tong Yue Restaurant
880,BRONX,Melrose,Pizza,40.814358,-73.913183,Fresco Pizza & Pasta Restaurant
881,BRONX,Melrose,Mexican,40.81873522081891,-73.91665010366154,Xochimilco Family Restaurant
882,BRONX,Melrose,Pizza,40.81709844985412,-73.92186622574978,Yolanda's Italian Pizzeria & Restaurant
883,BRONX,Melrose,American,40.82781643711514,-73.92477798768978,Crown Donut Family Restaurant
884,BRONX,Melrose,Chinese,40.81991316300783,-73.91322813247328,New china chinese restaurant
885,BRONX,Melrose,Kitchen Supply,40.807876227858564,-73.89832726732573,Jetro/Restaurant Depot
886,BRONX,Melrose,Chinese,40.82833468772532,-73.92456283675949,New Sunflower Restaurant
887,BRONX,Melrose,Pizza,40.81799,-73.9169,Gar's Pizzeria Restaurant
888,BRONX,Melrose,Chinese,40.819509368665265,-73.89263114372312,Hunts Point Chinese Restaurant
889,BRONX,Melrose,Chinese,40.806934798146116,-73.91735602373572,Good Choice Chinese Restaurant
890,BRONX,Melrose,Pizza,40.81240488922388,-73.9246206233479,Giovanni's Pizza & Restaurant
891,BRONX,Melrose,Southern / Soul,40.819826061659136,-73.9266177431629,Sam's Soul Food Restaurant and Bar
892,BRONX,Melrose,Chinese,40.81228821883985,-73.90752702051248,Fuh Wah Restaurant
893,BRONX,Melrose,Caribbean,40.82320008936892,-73.92359649410736,Salena's West Indian Restaurant
894,BRONX,Melrose,Restaurant,40.81584,-73.91979,Lolita's Restaurant In The Bronx
895,BRONX,Melrose,Chinese,40.82585,-73.899047,Chang Jiang Kitchen Chinese Restaurant
896,BRONX,Melrose,Spanish,40.818110751345515,-73.92254016362365,El Coqui Restaurant
897,BRONX,Melrose,Diner,40.817116072359624,-73.89642925178612,Di-Elle's Restaurant
898,BRONX,Melrose,Spanish,40.816005,-73.908579,Cocina Latina Restaurant Corp
899,BRONX,Melrose,South American,40.81567051214783,-73.92515673982929,Mikes Restaurant
900,BRONX,Melrose,American,40.830602,-73.90337,Karim's Restaurant
901,BRONX,Melrose,Chinese,40.831799,-73.905486,King House Chinese Restaurant
902,BRONX,Melrose,Italian,40.812799240478064,-73.90733521559764,Venice Restaurant & Pizzeria
903,BRONX,Melrose,Spanish,40.81513441012551,-73.91549250312227,El Valle Restaurant
904,BRONX,Melrose,Bar,40.819361560076736,-73.92702926271058,Giovanni's Restaurant
905,BRONX,Melrose,Chinese,40.81606213604075,-73.907412192777,Triple A Chinese Restaurant
906,BRONX,Melrose,Mexican,40.82465744018555,-73.91360473632812,Lupita's Restaurant
907,BRONX,Melrose,African,40.823601210941405,-73.91400933265686,Bate Restaurant
908,BRONX,Melrose,Food,40.829147,-73.915981,Doro's Jamaican Restaurant
909,BRONX,Melrose,Asian,40.821330140040125,-73.90680934605565,panda restaurant
910,BRONX,Melrose,Southern / Soul,40.821786,-73.911358,Flava’s Restaurant And Lounge
911,BRONX,Melrose,Peruvian,40.81478789747817,-73.91504588161166,La Granja Peruvian Restaurant
912,BRONX,Melrose,Food,40.820202,-73.913461,Freddy and Fernandos Restaurant
913,BRONX,Melrose,Spanish,40.820372435635235,-73.91338314527125,Dominican Restaurant
914,BRONX,Melrose,Diner,40.80352115643461,-73.90599138528846,The Locust Restaurant
915,BRONX,Melrose,Mexican,40.81523833271032,-73.90413075685501,Patron Mexican restaurant
916,BRONX,Melrose,Chinese,40.823255,-73.909018,Panda Chinese Restaurant
917,BRONX,Melrose,Latin American,40.81512465525791,-73.90344142913818,Seis Vecinos Restaurant
918,BRONX,Melrose,American,40.81881412953685,-73.91433044302089,Eleven Star -American restaurant
919,BRONX,Melrose,Latin American,40.81611317943814,-73.89630997108353,El Valle Restaurant
920,BRONX,Melrose,Latin American,40.82395959514863,-73.89350635116757,Sabor Latino Cuchifrito Restaurant
921,BRONX,Melrose,Bakery,40.81597,-73.907696,La Orquidea Bakery and Restaurant
922,BRONX,Melrose,Spanish,40.81589161404247,-73.91707470986586,Delicioso Restaurant
923,BRONX,Melrose,Food,40.815306,-73.908332,El Encanto Restaurant
924,BRONX,Melrose,African,40.8241688,-73.9108031,Ebenezer African Restaurant
925,BRONX,Melrose,Mexican,40.81523833271032,-73.9076578617096,La Patrona Restaurant
926,BRONX,Melrose,Food,40.818834,-73.9032,La Fuente Restaurant
927,BRONX,Melrose,South American,40.81569,-73.919803,Lolitas Restaurant aka Lucho Barrios
928,BRONX,Melrose,BBQ,40.818665,-73.915869,Blessed One Restaurant
929,BRONX,Melrose,Food,40.812958,-73.907744,New Fuh Wah Restaurant
930,BRONX,Mott Haven,Chinese,40.806934798146116,-73.91735602373572,Good Choice Chinese Restaurant
931,BRONX,Mott Haven,Pizza,40.814358,-73.913183,Fresco Pizza & Pasta Restaurant
932,BRONX,Mott Haven,Kitchen Supply,40.807876227858564,-73.89832726732573,Jetro/Restaurant Depot
933,BRONX,Mott Haven,Pizza,40.81709844985412,-73.92186622574978,Yolanda's Italian Pizzeria & Restaurant
934,BRONX,Mott Haven,Pizza,40.81240488922388,-73.9246206233479,Giovanni's Pizza & Restaurant
935,BRONX,Mott Haven,Mexican,40.81873522081891,-73.91665010366154,Xochimilco Family Restaurant
936,BRONX,Mott Haven,Caribbean,40.79982963049066,-73.93585896796102,Mama’s Restaurant
937,BRONX,Mott Haven,Chinese,40.81228821883985,-73.90752702051248,Fuh Wah Restaurant
938,BRONX,Mott Haven,Southern / Soul,40.819826061659136,-73.9266177431629,Sam's Soul Food Restaurant and Bar
939,BRONX,Mott Haven,Restaurant,40.81584,-73.91979,Lolita's Restaurant In The Bronx
940,BRONX,Mott Haven,South American,40.81567051214783,-73.92515673982929,Mikes Restaurant
941,BRONX,Mott Haven,Pizza,40.80819171597443,-73.91657027494215,Ray's Pizza Restaurant
942,BRONX,Mott Haven,Diner,40.80352115643461,-73.90599138528846,The Locust Restaurant
943,BRONX,Mott Haven,Pizza,40.81799,-73.9169,Gar's Pizzeria Restaurant
944,BRONX,Mott Haven,Spanish,40.818110751345515,-73.92254016362365,El Coqui Restaurant
945,BRONX,Mott Haven,Chinese,40.81991316300783,-73.91322813247328,New china chinese restaurant
946,BRONX,Mott Haven,Food,40.80635,-73.9178,Bowere Restaurant Equipment Supplies
947,BRONX,Mott Haven,Italian,40.812799240478064,-73.90733521559764,Venice Restaurant & Pizzeria
948,BRONX,Mott Haven,Chinese,40.81035017489943,-73.92497663151372,Chung Ching Restaurant
949,BRONX,Mott Haven,Food,40.80656,-73.918592,Lacopa Restaurant
950,BRONX,Mott Haven,Chinese,40.79777883922172,-73.93463021138618,Wing Wah Chinese Restaurant
951,BRONX,Mott Haven,Spanish,40.81513441012551,-73.91549250312227,El Valle Restaurant
952,BRONX,Mott Haven,Spanish,40.807605452730336,-73.91884870276843,Camaquey Restaurant
953,BRONX,Mott Haven,Bar,40.819361560076736,-73.92702926271058,Giovanni's Restaurant
954,BRONX,Mott Haven,Food,40.810733,-73.927653,Restaurant Le Qg
955,BRONX,Mott Haven,Food,40.807959,-73.918992,Salinas Restaurant
956,BRONX,Mott Haven,Caribbean,40.80784217076114,-73.9196639303256,Latino Restaurant
957,BRONX,Mott Haven,Chinese,40.80619769137015,-73.92050211847527,Foo Hing Chinese Restaurant
958,BRONX,Mott Haven,Chinese,40.807889,-73.920316,New Ming Qi House Restaurant
959,BRONX,Mott Haven,Food,40.803189,-73.913081,Adorno's Restaurant
960,BRONX,Mott Haven,Peruvian,40.81478789747817,-73.91504588161166,La Granja Peruvian Restaurant
961,BRONX,Mott Haven,Spanish,40.816005,-73.908579,Cocina Latina Restaurant Corp
962,BRONX,Mott Haven,Food,40.804247,-73.921048,New Food King Restaurant Supply
963,BRONX,Mott Haven,Mexican,40.80882151229862,-73.92247127230567,La Fiesta Restaurant
964,BRONX,Mott Haven,Food,40.811801,-73.916768,Hot Pot Restaurant
965,BRONX,Mott Haven,Latin American,40.808748700538025,-73.92320810860238,Caridad Restaurant
966,BRONX,Mott Haven,South American,40.81569,-73.919803,Lolitas Restaurant aka Lucho Barrios
967,BRONX,Mott Haven,Food,40.808934,-73.922893,Los Latinos Restaurant
968,BRONX,Mott Haven,Food,40.810429,-73.921737,Dragon City Restaurant
969,BRONX,Mott Haven,Mexican,40.809612155790504,-73.92261479585723,Tepeyac Mexican Restaurant
970,BRONX,Mott Haven,Food,40.808108,-73.907942,Boulevard Restaurant
971,BRONX,Mott Haven,Spanish,40.81589161404247,-73.91707470986586,Delicioso Restaurant
972,BRONX,Mott Haven,Mexican,40.80943486526522,-73.92256886833226,Santa Clarita Restaurant
973,BRONX,Mott Haven,Pizza,40.809687,-73.92389,Original Pizza Restaurant 361
974,BRONX,Mott Haven,Latin American,40.81736729138339,-73.92250557619369,La Isla Restaurant
975,BRONX,Mott Haven,Food,40.812958,-73.907744,New Fuh Wah Restaurant
976,BRONX,Mott Haven,Pizza,40.811868,-73.909584,Star Light Pizza and Restaurant
977,BRONX,Mott Haven,Latin American,40.81779131050992,-73.92258035021452,Sabores Restaurant
978,BRONX,Mott Haven,Mexican,40.806679,-73.927082,D'jembe Restaurant
979,BRONX,Mott Haven,Mexican,40.81691911231031,-73.92995238304138,La Esquina Mexican Restaurant
980,BRONX,Port Morris,Chinese,40.806934798146116,-73.91735602373572,Good Choice Chinese Restaurant
981,BRONX,Port Morris,Pizza,40.814358,-73.913183,Fresco Pizza & Pasta Restaurant
982,BRONX,Port Morris,Kitchen Supply,40.807876227858564,-73.89832726732573,Jetro/Restaurant Depot
983,BRONX,Port Morris,Caribbean,40.79982963049066,-73.93585896796102,Mama’s Restaurant
984,BRONX,Port Morris,Pizza,40.81240488922388,-73.9246206233479,Giovanni's Pizza & Restaurant
985,BRONX,Port Morris,Mexican,40.81873522081891,-73.91665010366154,Xochimilco Family Restaurant
986,BRONX,Port Morris,Diner,40.80352115643461,-73.90599138528846,The Locust Restaurant
987,BRONX,Port Morris,Chinese,40.81228821883985,-73.90752702051248,Fuh Wah Restaurant
988,BRONX,Port Morris,Restaurant,40.81584,-73.91979,Lolita's Restaurant In The Bronx
989,BRONX,Port Morris,Food,40.803189,-73.913081,Adorno's Restaurant
990,BRONX,Port Morris,South American,40.81567051214783,-73.92515673982929,Mikes Restaurant
991,BRONX,Port Morris,Pizza,40.81799,-73.9169,Gar's Pizzeria Restaurant
992,BRONX,Port Morris,Chinese,40.79777883922172,-73.93463021138618,Wing Wah Chinese Restaurant
993,BRONX,Port Morris,Italian,40.812799240478064,-73.90733521559764,Venice Restaurant & Pizzeria
994,BRONX,Port Morris,Pizza,40.80819171597443,-73.91657027494215,Ray's Pizza Restaurant
995,BRONX,Port Morris,Chinese,40.81035017489943,-73.92497663151372,Chung Ching Restaurant
996,BRONX,Port Morris,Food,40.810733,-73.927653,Restaurant Le Qg
997,BRONX,Port Morris,Spanish,40.81513441012551,-73.91549250312227,El Valle Restaurant
998,BRONX,Port Morris,Spanish,40.79666905468407,-73.91657523321693,La Sabrosura Restaurant
999,BRONX,Port Morris,Food,40.80635,-73.9178,Bowere Restaurant Equipment Supplies
1000,BRONX,Port Morris,Food,40.80656,-73.918592,Lacopa Restaurant
1001,BRONX,Port Morris,Food,40.804247,-73.921048,New Food King Restaurant Supply
1002,BRONX,Port Morris,Spanish,40.816005,-73.908579,Cocina Latina Restaurant Corp
1003,BRONX,Port Morris,Spanish,40.807605452730336,-73.91884870276843,Camaquey Restaurant
1004,BRONX,Port Morris,Peruvian,40.81478789747817,-73.91504588161166,La Granja Peruvian Restaurant
1005,BRONX,Port Morris,Chinese,40.80619769137015,-73.92050211847527,Foo Hing Chinese Restaurant
1006,BRONX,Port Morris,Food,40.808108,-73.907942,Boulevard Restaurant
1007,BRONX,Port Morris,Food,40.807959,-73.918992,Salinas Restaurant
1008,BRONX,Port Morris,Caribbean,40.80784217076114,-73.9196639303256,Latino Restaurant
1009,BRONX,Port Morris,Chinese,40.807889,-73.920316,New Ming Qi House Restaurant
1010,BRONX,Port Morris,Mexican,40.80882151229862,-73.92247127230567,La Fiesta Restaurant
1011,BRONX,Port Morris,Food,40.812958,-73.907744,New Fuh Wah Restaurant
1012,BRONX,Port Morris,Latin American,40.808748700538025,-73.92320810860238,Caridad Restaurant
1013,BRONX,Port Morris,South American,40.81569,-73.919803,Lolitas Restaurant aka Lucho Barrios
1014,BRONX,Port Morris,Food,40.808934,-73.922893,Los Latinos Restaurant
1015,BRONX,Port Morris,Food,40.811801,-73.916768,Hot Pot Restaurant
1016,BRONX,Port Morris,Pizza,40.811868,-73.909584,Star Light Pizza and Restaurant
1017,BRONX,Port Morris,Spanish,40.81589161404247,-73.91707470986586,Delicioso Restaurant
1018,BRONX,Port Morris,Mexican,40.806679,-73.927082,D'jembe Restaurant
1019,BRONX,Port Morris,Mexican,40.809612155790504,-73.92261479585723,Tepeyac Mexican Restaurant
1020,BRONX,Port Morris,Food,40.810429,-73.921737,Dragon City Restaurant
1021,BRONX,Port Morris,Chinese,40.81606213604075,-73.907412192777,Triple A Chinese Restaurant
1022,BRONX,Port Morris,Mexican,40.81523833271032,-73.90413075685501,Patron Mexican restaurant
1023,BRONX,Port Morris,Pizza,40.809687,-73.92389,Original Pizza Restaurant 361
1024,BRONX,Port Morris,Mexican,40.80943486526522,-73.92256886833226,Santa Clarita Restaurant
1025,BRONX,Port Morris,Latin American,40.81512465525791,-73.90344142913818,Seis Vecinos Restaurant
1026,BRONX,Port Morris,Food,40.81305,-73.907673,N and J Restaurant
1027,BRONX,Port Morris,Spanish,40.81247694199646,-73.90417402278409,3J Restaurant
1028,BRONX,Port Morris,Chinese,40.80585116709111,-73.9141058921814,No. 1 Wok
1029,BRONX,Port Morris,Restaurant,40.81440277795284,-73.91532366540676,La Orquidea Restaurant
1030,BRONX,Longwood,Kitchen Supply,40.807876227858564,-73.89832726732573,Jetro/Restaurant Depot
1031,BRONX,Longwood,Chinese,40.819509368665265,-73.89263114372312,Hunts Point Chinese Restaurant
1032,BRONX,Longwood,Pizza,40.814358,-73.913183,Fresco Pizza & Pasta Restaurant
1033,BRONX,Longwood,Diner,40.817116072359624,-73.89642925178612,Di-Elle's Restaurant
1034,BRONX,Longwood,Spanish,40.81252286734896,-73.88435341450321,Randall Restaurant
1035,BRONX,Longwood,Latin American,40.81611317943814,-73.89630997108353,El Valle Restaurant
1036,BRONX,Longwood,Mexican,40.81873522081891,-73.91665010366154,Xochimilco Family Restaurant
1037,BRONX,Longwood,Chinese,40.81228821883985,-73.90752702051248,Fuh Wah Restaurant
1038,BRONX,Longwood,Chinese,40.82585,-73.899047,Chang Jiang Kitchen Chinese Restaurant
1039,BRONX,Longwood,Chinese,40.81991316300783,-73.91322813247328,New china chinese restaurant
1040,BRONX,Longwood,Mexican,40.81525226803688,-73.89402465895539,Real Azteca Restaurant
1041,BRONX,Longwood,Home Services,40.81414052507137,-73.89684319496155,US RESTAURANT SUPPLY
1042,BRONX,Longwood,Spanish,40.814597,-73.892802,mily's restaurant
1043,BRONX,Longwood,Italian,40.812799240478064,-73.90733521559764,Venice Restaurant & Pizzeria
1044,BRONX,Longwood,Asian,40.81669,-73.89582,Fu Xing Restaurant
1045,BRONX,Longwood,Food,40.816654,-73.896773,JCX Cafe Restaurant
1046,BRONX,Longwood,Pizza,40.81799,-73.9169,Gar's Pizzeria Restaurant
1047,BRONX,Longwood,Food,40.81387,-73.89748,Club Deli Restaurant
1048,BRONX,Longwood,American,40.830602,-73.90337,Karim's Restaurant
1049,BRONX,Longwood,Latin American,40.82395959514863,-73.89350635116757,Sabor Latino Cuchifrito Restaurant
1050,BRONX,Longwood,Food,40.814149,-73.898231,Oliva Paraiso Restaurant No 2
1051,BRONX,Longwood,Diner,40.80352115643461,-73.90599138528846,The Locust Restaurant
1052,BRONX,Longwood,Chinese,40.831799,-73.905486,King House Chinese Restaurant
1053,BRONX,Longwood,Latin American,40.821022,-73.893127,Georgina Restaurant
1054,BRONX,Longwood,Southern / Soul,40.817417,-73.898253,Harmon's Soul Food Restaurant
1055,BRONX,Longwood,Spanish,40.816005,-73.908579,Cocina Latina Restaurant Corp
1056,BRONX,Longwood,Latin American,40.81512465525791,-73.90344142913818,Seis Vecinos Restaurant
1057,BRONX,Longwood,Food,40.815717,-73.900273,Santos Restaurant
1058,BRONX,Longwood,Mexican,40.81523833271032,-73.90413075685501,Patron Mexican restaurant
1059,BRONX,Longwood,Restaurant,40.811732,-73.890545,Allen's Restaurant Corp
1060,BRONX,Longwood,Latin American,40.815857,-73.902596,Margarita's Restaurant
1061,BRONX,Longwood,Chinese,40.81606213604075,-73.907412192777,Triple A Chinese Restaurant
1062,BRONX,Longwood,Spanish,40.81513441012551,-73.91549250312227,El Valle Restaurant
1063,BRONX,Longwood,Food,40.818186,-73.902075,N & J Bar Restaurant
1064,BRONX,Longwood,Food,40.815267,-73.903207,El Quisquelda Restaurant
1065,BRONX,Longwood,Pizza,40.811813509746045,-73.90168794443568,El Monstro del Sazon Pizzaria & Restaurant
1066,BRONX,Longwood,Food,40.81254,-73.902613,Dania's Restaurant
1067,BRONX,Longwood,Restaurant,40.818505,-73.902107,Carmen's Restaurant
1068,BRONX,Longwood,Food,40.820991,-73.896241,El Centroamericano Restaurant
1069,BRONX,Longwood,Food,40.820994,-73.896218,Tita's Restaurant
1070,BRONX,Longwood,Food,40.820979,-73.896601,Food Bo Garden Chinese Restaurant
1071,BRONX,Longwood,Food,40.821068,-73.896019,Castillo Restaurant
1072,BRONX,Longwood,Chinese,40.81801071904865,-73.88959010896698,Xin Ya Chinese Restaurant
1073,BRONX,Longwood,Chinese,40.82050306367065,-73.90125158561379,No. 1 Kitchen Chinese Restaurant
1074,BRONX,Longwood,Restaurant,40.816818,-73.888119,El Polvorin Restaurant
1075,BRONX,Longwood,Food,40.81635,-73.887854,Tu Restaurant
1076,BRONX,Longwood,Food,40.817333,-73.888232,Ligia Restaurant
1077,BRONX,Longwood,Caribbean,40.81997650456556,-73.90143531576302,El Despertar Restaurant
1078,BRONX,Longwood,Food,40.82108,-73.893033,J Y R Restaurant
1079,BRONX,Longwood,Food,40.81999,-73.890232,La Chicita Restaurant
1080,BRONX,Hunts Point,Spanish,40.81252286734896,-73.88435341450321,Randall Restaurant
1081,BRONX,Hunts Point,Kitchen Supply,40.807876227858564,-73.89832726732573,Jetro/Restaurant Depot
1082,BRONX,Hunts Point,Chinese,40.819509368665265,-73.89263114372312,Hunts Point Chinese Restaurant
1083,BRONX,Hunts Point,Diner,40.817116072359624,-73.89642925178612,Di-Elle's Restaurant
1084,BRONX,Hunts Point,Chinese,40.821289,-73.873745,Jade Joy Chinese Restaurant
1085,BRONX,Hunts Point,Food,40.809954,-73.881216,Blue Eagle Restaurant
1086,BRONX,Hunts Point,Food,40.812847,-73.881739,Coffee Mix Restaurant
1087,BRONX,Hunts Point,Diner,40.80352115643461,-73.90599138528846,The Locust Restaurant
1088,BRONX,Hunts Point,Latin American,40.81611317943814,-73.89630997108353,El Valle Restaurant
1089,BRONX,Hunts Point,Restaurant,40.811732,-73.890545,Allen's Restaurant Corp
1090,BRONX,Hunts Point,Latin American,40.82395959514863,-73.89350635116757,Sabor Latino Cuchifrito Restaurant
1091,BRONX,Hunts Point,Spanish,40.814597,-73.892802,mily's restaurant
1092,BRONX,Hunts Point,Food,40.815431,-73.886976,May May Restaurant
1093,BRONX,Hunts Point,Food,40.81635,-73.887854,Tu Restaurant
1094,BRONX,Hunts Point,Restaurant,40.816818,-73.888119,El Polvorin Restaurant
1095,BRONX,Hunts Point,Latin American,40.821022,-73.893127,Georgina Restaurant
1096,BRONX,Hunts Point,Food,40.8093,-73.872064,Market Place Restaurant
1097,BRONX,Hunts Point,Food,40.817333,-73.888232,Ligia Restaurant
1098,BRONX,Hunts Point,Mexican,40.81525226803688,-73.89402465895539,Real Azteca Restaurant
1099,BRONX,Hunts Point,Chinese,40.81801071904865,-73.88959010896698,Xin Ya Chinese Restaurant
1100,BRONX,Hunts Point,Home Services,40.81414052507137,-73.89684319496155,US RESTAURANT SUPPLY
1101,BRONX,Hunts Point,Food,40.81387,-73.89748,Club Deli Restaurant
1102,BRONX,Hunts Point,Food,40.81999,-73.890232,La Chicita Restaurant
1103,BRONX,Hunts Point,Asian,40.81669,-73.89582,Fu Xing Restaurant
1104,BRONX,Hunts Point,Food,40.814149,-73.898231,Oliva Paraiso Restaurant No 2
1105,BRONX,Hunts Point,Food,40.816654,-73.896773,JCX Cafe Restaurant
1106,BRONX,Hunts Point,Latin American,40.81512465525791,-73.90344142913818,Seis Vecinos Restaurant
1107,BRONX,Hunts Point,Food,40.821051,-73.892355,Carolina Restaurant
1108,BRONX,Hunts Point,Food,40.821077,-73.892492,Fast Seafood Restaurant
1109,BRONX,Hunts Point,Southern / Soul,40.817417,-73.898253,Harmon's Soul Food Restaurant
1110,BRONX,Hunts Point,Food,40.82108,-73.893033,J Y R Restaurant
1111,BRONX,Hunts Point,Food,40.815717,-73.900273,Santos Restaurant
1112,BRONX,Hunts Point,Pizza,40.811813509746045,-73.90168794443568,El Monstro del Sazon Pizzaria & Restaurant
1113,BRONX,Hunts Point,Chinese,40.82385967526869,-73.88809146401503,Peking Restaurant
1114,BRONX,Hunts Point,Food,40.821068,-73.896019,Castillo Restaurant
1115,BRONX,Hunts Point,Food,40.81254,-73.902613,Dania's Restaurant
1116,BRONX,Hunts Point,Food,40.820994,-73.896218,Tita's Restaurant
1117,BRONX,Hunts Point,Food,40.820991,-73.896241,El Centroamericano Restaurant
1118,BRONX,Hunts Point,Food,40.820979,-73.896601,Food Bo Garden Chinese Restaurant
1119,BRONX,Hunts Point,Spanish,40.81247694199646,-73.90417402278409,3J Restaurant
1120,BRONX,Hunts Point,Food,40.812456,-73.906035,Restaurante Cuatro Estrellas
1121,BRONX,Hunts Point,Chinese,40.81675713247213,-73.86536348088099,King Dragon Restaurant
1122,BRONX,Hunts Point,Food,40.815267,-73.903207,El Quisquelda Restaurant
1123,BRONX,Hunts Point,Food,40.823805,-73.893665,El Flamboyan Restaurant
1124,BRONX,Hunts Point,Seafood,40.82414931886693,-73.89355773036405,Dan's Seafood Restaurant
1125,BRONX,Hunts Point,Food,40.823901,-73.89401,John Sport Bar Restaurant
1126,BRONX,Hunts Point,Food,40.816299595745974,-73.86432980610817,Lin Kee Hong Chinese Restaurant
1127,BRONX,Hunts Point,Spanish,40.825630876740384,-73.88994455337524,Mamacita's Restaurant
1128,BRONX,Hunts Point,Food,40.821293,-73.866664,Castillo Restaurant
1129,BRONX,Hunts Point,Pizza,40.822303,-73.867019,Ashley's Pizzareia and Restaurant
1130,BRONX,Morrisania,Pizza,40.814358,-73.913183,Fresco Pizza & Pasta Restaurant
1131,BRONX,Morrisania,Chinese,40.819509368665265,-73.89263114372312,Hunts Point Chinese Restaurant
1132,BRONX,Morrisania,Chinese,40.82585,-73.899047,Chang Jiang Kitchen Chinese Restaurant
1133,BRONX,Morrisania,Kitchen Supply,40.807876227858564,-73.89832726732573,Jetro/Restaurant Depot
1134,BRONX,Morrisania,Mexican,40.81873522081891,-73.91665010366154,Xochimilco Family Restaurant
1135,BRONX,Morrisania,Pizza,40.81709844985412,-73.92186622574978,Yolanda's Italian Pizzeria & Restaurant
1136,BRONX,Morrisania,American,40.830602,-73.90337,Karim's Restaurant
1137,BRONX,Morrisania,Diner,40.817116072359624,-73.89642925178612,Di-Elle's Restaurant
1138,BRONX,Morrisania,Chinese,40.831799,-73.905486,King House Chinese Restaurant
1139,BRONX,Morrisania,Chinese,40.81991316300783,-73.91322813247328,New china chinese restaurant
1140,BRONX,Morrisania,Spanish,40.81252286734896,-73.88435341450321,Randall Restaurant
1141,BRONX,Morrisania,Mexican,40.828713,-73.881188,Vista Hermosa Restaurant
1142,BRONX,Morrisania,Chinese,40.81228821883985,-73.90752702051248,Fuh Wah Restaurant
1143,BRONX,Morrisania,Caribbean,40.82320008936892,-73.92359649410736,Salena's West Indian Restaurant
1144,BRONX,Morrisania,Pizza,40.81799,-73.9169,Gar's Pizzeria Restaurant
1145,BRONX,Morrisania,Latin American,40.82395959514863,-73.89350635116757,Sabor Latino Cuchifrito Restaurant
1146,BRONX,Morrisania,Spanish,40.83500069974927,-73.89106003308734,Puerto Rican Natural Restaurant & Bar
1147,BRONX,Morrisania,Food,40.822709,-73.900204,Flavors Restaurant
1148,BRONX,Morrisania,Food,40.822521,-73.90044,Carmens Restaurant
1149,BRONX,Morrisania,Chinese,40.822541,-73.90321,New Eastern Chinese Restaurant
1150,BRONX,Morrisania,Restaurant,40.81584,-73.91979,Lolita's Restaurant In The Bronx
1151,BRONX,Morrisania,Spanish,40.818110751345515,-73.92254016362365,El Coqui Restaurant
1152,BRONX,Morrisania,Chinese,40.82205748646104,-73.90334150585016,Wang Eastern Chinese Restaurant
1153,BRONX,Morrisania,Food,40.825248,-73.899329,Sixo Restaurant
1154,BRONX,Morrisania,Italian,40.812799240478064,-73.90733521559764,Venice Restaurant & Pizzeria
